FID,LAT,LON,NCESSCH_1,JOIN_NUM,SCH_CAT,YEAR,PER_INEX_T,PER_OOF_T,PER_PROV,BLKSTU_CI,NUM_BLKLTS,PER_PROF, PER_ALL_AP ,P_ABOVE10,PER_ADVDIP,PER_EC_DIS,PER_ELL,PER_BLK_LA,Year,SCH_DIV,FED_SCHDIV,DIV_NUM,DIV_NAME,SCH_NUM,SCH_NAME
0,37.407,-77.623,510084000056,21632,High,2022 - 2023,4.8,4.2,11.4,1.726962457,7,#N/A, 22.1 ,22.8,48.61660079,36.38433515,4.280510018,46.22040073,2021-2022,Manchester HighChesterfield County Public Schools,Manchester HighChesterfield County Public Schools,21,Chesterfield County,632,Manchester High
1,37.44794,-77.64003,510084000324,21740,High,2022 - 2023,4.1,2.4,5.7,2.207843137,7,#N/A, 29.6 ,22.4,62.7039627,29.4084507,3.098591549,38.70422535,2021-2022,Clover Hill HighChesterfield County Public Schools,Clover Hill HighChesterfield County Public Schools,21,Chesterfield County,740,Clover Hill High
2,37.3886,-77.4946,510084000337,2110,High,2022 - 2023,6.3,7,10.5,1.365,20,#N/A, 17.2 ,34.7,44.46902655,47.27004427,8.706345303,68.0275455,2021-2022,Lloyd C. Bird HighChesterfield County Public Schools,Lloyd C. Bird HighChesterfield County Public Schools,21,Chesterfield County,10,Lloyd C. Bird High
3,37.2773,-77.4673,510084000340,21530,High,2022 - 2023,5.1,6.8,6.8,1.631707317,10,#N/A, 16.6 ,20.2,58.67346939,37.44654856,1.588271228,49.29749542,2021-2022,Matoaca HighChesterfield County Public Schools,Matoaca HighChesterfield County Public Schools,21,Chesterfield County,530,Matoaca High
4,37.4357,-77.4836,510084000342,21580,High,2022 - 2023,5.3,10,15.3,1.418269231,29,#N/A, 11.6 ,37.4,32.49516441,52.28726021,20.46237088,90.50664043,2021-2022,Meadowbrook HighChesterfield County Public Schools,Meadowbrook HighChesterfield County Public Schools,21,Chesterfield County,580,Meadowbrook High
5,37.3621,-77.4367,510084000350,21610,High,2022 - 2023,5.4,6.5,7.6,1.588888889,6,#N/A, 17.5 ,26.2,52.99539171,39.11007026,5.230288837,56.12802498,2021-2022,Thomas Dale HighChesterfield County Public Schools,Thomas Dale HighChesterfield County Public Schools,21,Chesterfield County,610,Thomas Dale High
6,37.5526,-77.6493,510084000766,21770,High,2022 - 2023,2.4,3.9,3.9,1.826666667,1,#N/A, 35.4 ,22.1,63.54378819,31.10419907,7.205806117,35.87350959,2021-2022,James River HighChesterfield County Public Schools,James River HighChesterfield County Public Schools,21,Chesterfield County,770,James River High
7,37.479,-77.6133,510084001833,21280,High,2022 - 2023,0.9,2.7,7.2,1.47639485,6,#N/A, 29.7 ,25.3,59.94962217,33.57843137,4.411764706,40.44117647,2021-2022,Monacan HighChesterfield County Public Schools,Monacan HighChesterfield County Public Schools,21,Chesterfield County,280,Monacan High
8,37.496,-77.6603,510084002006,21320,High,2022 - 2023,2.9,1.5,5.1,2.651376147,0,#N/A, 35.7 ,13.4,75.19083969,13.59413203,1.173594132,16.72371638,2021-2022,Midlothian HighChesterfield County Public Schools,Midlothian HighChesterfield County Public Schools,21,Chesterfield County,320,Midlothian High
9,37.4062,-77.7028,510084002661,21840,High,2022 - 2023,0.7,0.7,1.3,1.657894737,1,#N/A, 29.9 ,11.1,75.21663778,13.95056556,1.131126938,23.54419774,2021-2022,Cosby HighChesterfield County Public Schools,Cosby HighChesterfield County Public Schools,21,Chesterfield County,840,Cosby High
10,37.7004,-77.8971,510165000686,37220,High,2022 - 2023,0,3.8,7.6,1.924657534,1,#N/A, 24.4 ,8.9,76.62337662,27.75280899,1.460674157,22.13483146,2021-2022,Goochland HighGoochland County Public Schools,Goochland HighGoochland County Public Schools,37,Goochland County,220,Goochland High
11,37.6648,-77.4104,510183000114,4262,High,2022 - 2023,5.5,1.8,4.5,2.166666667,2,#N/A, 29.0 ,7.3,75.26315789,20.31454784,0.655307995,11.79554391,2021-2022,Atlee HighHanover County Public Schools,Atlee HighHanover County Public Schools,42,Hanover County,62,Atlee High
12,37.6127,-77.3404,510183000772,42370,High,2022 - 2023,3.8,0,8.6,2.340659341,2,#N/A, 20.7 ,12.4,56.77233429,35.81979321,1.846381093,14.91875923,2021-2022,Mechanicsville HighHanover County Public Schools,Mechanicsville HighHanover County Public Schools,42,Hanover County,370,Mechanicsville High
13,37.786,-77.5341,510183000776,42400,High,2022 - 2023,2.8,0.9,8.3,1.4609375,3,#N/A, 24.4 ,12.1,58.35962145,39.15343915,2.872260015,25.62358277,2021-2022,Patrick Henry HighHanover County Public Schools,Patrick Henry HighHanover County Public Schools,42,Hanover County,400,Patrick Henry High
14,37.6886,-77.3852,510183002338,42554,High,2022 - 2023,5.4,3.6,9,2.039473684,1,#N/A, 24.4 ,9.1,69.76127321,21.30343378,0.770847933,12.12333567,2021-2022,Hanover HighHanover County Public Schools,Hanover HighHanover County Public Schools,42,Hanover County,554,Hanover High
15,37.6016,-77.5584,510189000795,43410,High,2022 - 2023,1.7,4.3,5.1,3.545454545,0,#N/A, 36.8 ,16.2,62.10526316,35.53763441,11.07526882,32.04301075,2021-2022,Douglas S. Freeman HighHenrico County Public Schools,Douglas S. Freeman HighHenrico County Public Schools,43,Henrico County,410,Douglas S. Freeman High
16,37.6037,-77.4317,510189000804,43610,High,2022 - 2023,1.8,5.5,19.3,1.292329957,0,#N/A, 29.6 ,28.1,52.53731343,53.33827893,1.928783383,74.55489614,2021-2022,Henrico HighHenrico County Public Schools,Henrico HighHenrico County Public Schools,43,Henrico County,610,Henrico High
17,37.6333,-77.5172,510189000806,43670,High,2022 - 2023,1.8,7,9.6,1.602941176,0,#N/A, 23.0 ,22.2,32.00992556,50.84449621,12.87128713,63.07513104,2021-2022,Hermitage HighHenrico County Public Schools,Hermitage HighHenrico County Public Schools,43,Henrico County,670,Hermitage High
18,37.536957,-77.324,510189000809,43190,High,2022 - 2023,4.7,10.2,19.5,1.078507079,0,#N/A, 25.7 ,39.3,36.03960396,58.59262805,3.638104356,86.02202011,2021-2022,Highland Springs HighHenrico County Public Schools,Highland Springs HighHenrico County Public Schools,43,Henrico County,190,Highland Springs High
19,37.6303,-77.5471,510189000811,43600,High,2022 - 2023,1.6,4.9,9.8,1.706666667,0,#N/A, 29.9 ,22,40.13452915,52.24425887,16.64926931,50.36534447,2021-2022,John Randolph Tucker HighHenrico County Public Schools,John Randolph Tucker HighHenrico County Public Schools,43,Henrico County,600,John Randolph Tucker High
20,37.4719,-77.3784,510189000835,43580,High,2022 - 2023,1.9,9.6,21.2,1.167119565,0,#N/A, 31.0 ,30.3,41.46341463,53.4519573,1.779359431,78.93238434,2021-2022,Varina HighHenrico County Public Schools,Varina HighHenrico County Public Schools,43,Henrico County,580,Varina High
21,37.6201,-77.6052,510189001851,43140,High,2022 - 2023,2.8,1.9,3.7,4.642105263,0,#N/A, 36.2 ,11.9,70.66115702,22.39142696,3.891708968,17.76649746,2021-2022,Mills E. Godwin HighHenrico County Public Schools,Mills E. Godwin HighHenrico County Public Schools,43,Henrico County,140,Mills E. Godwin High
22,37.675,-77.5988,510189002278,43160,High,2022 - 2023,4.3,1.7,9.5,3.891566265,0,#N/A, 58.3 ,6.5,77.96610169,11.39615195,1.578687716,14.9975333,2021-2022,Deep Run HighHenrico County Public Schools,Deep Run HighHenrico County Public Schools,43,Henrico County,160,Deep Run High
23,37.666,-77.5342,510189002837,4396,High,2022 - 2023,1.6,4,10.5,1.30952381,0,#N/A, 39.4 ,13.1,73.60308285,24.32701894,3.489531406,24.97507478,2021-2022,Glen Allen HighHenrico County Public Schools,Glen Allen HighHenrico County Public Schools,43,Henrico County,96,Glen Allen High
24,37.571387,-77.486325,510324002070,12320,High,2022 - 2023,,9.7,16.7,1.410015649,18,#N/A, 0.4 ,20.3,52.13675214,61.66056166,1.831501832,73.01587302,2021-2022,Thomas Jefferson HighRichmond City Public Schools,Thomas Jefferson HighRichmond City Public Schools,123,Richmond City,20,Thomas Jefferson High
25,37.594196,-77.446562,510324002080,123730,High,2022 - 2023,,9.3,9.3,1.2,13,#N/A, 25.7 ,24.8,39.70588235,72,1.666666667,84.16666667,2021-2022,John Marshall HighRichmond City Public Schools,John Marshall HighRichmond City Public Schools,123,Richmond City,730,John Marshall High
26,37.531707,-77.540948,510324002083,1231510,High,2022 - 2023,,9.7,13.6,1.397003745,27,#N/A, 7.9 ,28,39.15492958,62.75773196,24.48453608,91.36597938,2021-2022,Huguenot HighRichmond City Public Schools,Huguenot HighRichmond City Public Schools,123,Richmond City,1510,Huguenot High
27,37.528697,-77.403739,510324002214,123621,Other,2022 - 2023,,15.4,12.8,0,1,#N/A, 35.3 ,10,85.71428571,62.11604096,4.436860068,84.98293515,2021-2022,Franklin Military AcademyRichmond City Public Schools,Franklin Military AcademyRichmond City Public Schools,123,Richmond City,621,Franklin Military Academy
28,37.510054,-76.981097,510261002156,6320,High,2022 - 2023,1.4,14.5,4.3,1.25,0,#N/A, 6.5 ,19,47.95539033,21.76628011,0.981266726,18.3764496,2021-2022,New Kent High New Kent County Public Schools,New Kent HighNew Kent County Public Schools,63,New Kent County,20,New Kent High
29,37.552558,-77.403762,510324002082,123850,High,2022 - 2023,,11.6,17.4,1.053215078,26,#N/A, 20.2 ,42.7,32.75862069,85.40829987,1.606425703,94.37751004,2021-2022,Armstrong High Richmond City Public Schools,ARMSTRONG HIGHHenrico County Public Schools,123,Richmond City,850,Armstrong High
30,37.510274,-77.483075,510324002081,123741,High,2022 - 2023,,14.7,20,1.374100719,70,#N/A, 10.3 ,39.2,14.21446384,60.12223071,38.19709702,96.1038961,2021-2022,George Wythe HighRichmond City Public Schools,George Wythe HighRichmond City Public Schools,123,Richmond City,741,George Wythe High
31,37.4918,-77.5457,510084000314,21620,Elementary,2022 - 2023,9,3,16.4,1.745819398,0,57,#N/A,19.2,,57.37483085,23.54533153,70.0947226,2021-2022,A.M. Davis ElementaryChesterfield County Public Schools,A.M. Davis ElementaryChesterfield County Public Schools,21,Chesterfield County,620,A.M. Davis Elementary
32,37.3915,-77.4413,510084000315,21660,Elementary,2022 - 2023,2.1,6.3,6.3,0,0,39,#N/A,26.1,,68.7366167,41.11349036,78.37259101,2021-2022,Bellwood ElementaryChesterfield County Public Schools,Bellwood ElementaryChesterfield County Public Schools,21,Chesterfield County,660,Bellwood Elementary
33,37.436,-77.4515,510084000316,21430,Elementary,2022 - 2023,6.2,6.2,10.8,1.401960784,0,28,#N/A,32.3,,64.26116838,54.81099656,92.95532646,2021-2022,Bensley ElementaryChesterfield County Public Schools,Bensley ElementaryChesterfield County Public Schools,21,Chesterfield County,430,Bensley Elementary
34,37.41105,-77.489791,510084000317,21130,Elementary,2022 - 2023,8,13.3,10.7,1.574074074,0,50,#N/A,18.3,,53.69059656,19.91911021,77.95753286,2021-2022,Beulah ElementaryChesterfield County Public Schools,Beulah ElementaryChesterfield County Public Schools,21,Chesterfield County,130,Beulah Elementary
35,37.528083,-77.562693,510084000318,2120,Elementary,2022 - 2023,4.3,4.3,4.3,0,0,61,#N/A,10.5,,40.83044983,15.57093426,32.87197232,2021-2022,Bon Air ElementaryChesterfield County Public Schools,Bon Air ElementaryChesterfield County Public Schools,21,Chesterfield County,20,Bon Air Elementary
36,37.3363,-77.4399,510084000319,2150,Elementary,2022 - 2023,0,2.3,4.5,1.184895833,0,65,#N/A,21.6,,48.55687606,5.093378608,52.97113752,2021-2022,C.C. Wells ElementaryChesterfield County Public Schools,C.C. Wells ElementaryChesterfield County Public Schools,21,Chesterfield County,50,C.C. Wells Elementary
37,37.361217,-77.433949,510084000320,21492,Elementary,2022 - 2023,15.9,3.2,7.9,1.272373541,0,62,#N/A,19.8,,52.68225585,16.6437414,52.95735901,2021-2022,C.E. Curtis ElementaryChesterfield County Public Schools,C.E. Curtis ElementaryChesterfield County Public Schools,21,Chesterfield County,492,C.E. Curtis Elementary
38,37.5263,-77.5371,510084000325,21560,Elementary,2022 - 2023,3.6,1.8,3.6,3.773584906,0,56,#N/A,20.2,,44.48275862,22.4137931,52.24137931,2021-2022,Crestwood ElementaryChesterfield County Public Schools,Crestwood ElementaryChesterfield County Public Schools,21,Chesterfield County,560,Crestwood Elementary
39,37.3294,-77.3243,510084000326,21390,Elementary,2022 - 2023,13.6,3.4,0,1.484429066,0,57,#N/A,16.4,,43.27784891,11.26760563,50.44814341,2021-2022,Enon ElementaryChesterfield County Public Schools,Enon ElementaryChesterfield County Public Schools,21,Chesterfield County,390,Enon Elementary
40,37.2376,-77.4274,510084000327,21350,Elementary,2022 - 2023,6,0,4,0,0,63,#N/A,16.1,,73.2,2.2,74.6,2021-2022,Ettrick ElementaryChesterfield County Public Schools,Ettrick ElementaryChesterfield County Public Schools,21,Chesterfield County,350,Ettrick Elementary
41,37.4559,-77.4703,510084000328,21590,Elementary,2022 - 2023,9.3,10.7,10.7,1.901098901,0,38,#N/A,24.7,,65.62874251,39.64071856,89.82035928,2021-2022,Falling Creek ElementaryChesterfield County Public Schools,Falling Creek ElementaryChesterfield County Public Schools,21,Chesterfield County,590,Falling Creek Elementary
42,37.3887,-77.7662,510084000330,21180,Elementary,2022 - 2023,1.9,1.9,7.4,2.319444444,0,77,#N/A,9.5,,13.77005348,2.673796791,13.5026738,2021-2022,Grange Hall ElementaryChesterfield County Public Schools,Grange Hall ElementaryChesterfield County Public Schools,21,Chesterfield County,180,Grange Hall Elementary
43,37.5188,-77.5918,510084000331,2170,Elementary,2022 - 2023,0,0,2.4,1.1171875,0,80,#N/A,8.8,,31.6017316,6.70995671,25.32467532,2021-2022,Greenfield ElementaryChesterfield County Public Schools,Greenfield ElementaryChesterfield County Public Schools,21,Chesterfield County,70,Greenfield Elementary
44,37.301537,-77.433504,510084000332,21460,Elementary,2022 - 2023,2.4,7.3,4.9,1.626953125,0,60,#N/A,20.9,,63.59550562,4.719101124,65.61797753,2021-2022,Harrowgate ElementaryChesterfield County Public Schools,Harrowgate ElementaryChesterfield County Public Schools,21,Chesterfield County,460,Harrowgate Elementary
45,37.4357,-77.4745,510084000333,2160,Elementary,2022 - 2023,4.2,1.4,5.6,2.557544757,0,48,#N/A,12.6,,59.6377749,30.40103493,85.25226391,2021-2022,Hopkins Road ElementaryChesterfield County Public Schools,Hopkins Road ElementaryChesterfield County Public Schools,21,Chesterfield County,60,Hopkins Road Elementary
46,37.46529,-77.518621,510084000334,21550,Elementary,2022 - 2023,6.5,5.2,7.8,1.527777778,0,38,#N/A,32.5,,71.49643705,25.05938242,89.78622328,2021-2022,J.A. Chalkley ElementaryChesterfield County Public Schools,J.A. Chalkley ElementaryChesterfield County Public Schools,21,Chesterfield County,550,J.A. Chalkley Elementary
47,37.495655,-77.652984,510084000335,21650,Elementary,2022 - 2023,0,3.3,0,0,0,92,#N/A,8.7,,15.35626536,3.194103194,14.25061425,2021-2022,J.B. Watkins ElementaryChesterfield County Public Schools,J.B. Watkins ElementaryChesterfield County Public Schools,21,Chesterfield County,650,J.B. Watkins Elementary
48,37.4469,-77.4899,510084000336,21500,Elementary,2022 - 2023,13.2,18.4,10.5,1.144396552,0,42,#N/A,21.8,,54.57875458,22.34432234,85.47008547,2021-2022,J.G. Hening ElementaryChesterfield County Public Schools,J.G. Hening ElementaryChesterfield County Public Schools,21,Chesterfield County,500,J.G. Hening Elementary
49,37.2303,-77.4827,510084000339,21370,Elementary,2022 - 2023,0,4.3,12.8,1.474926254,0,72,#N/A,22.1,,48.30371567,1.777059774,42.32633279,2021-2022,Matoaca ElementaryChesterfield County Public Schools,Matoaca ElementaryChesterfield County Public Schools,21,Chesterfield County,370,Matoaca Elementary
50,37.4872,-77.5865,510084000345,21700,Elementary,2022 - 2023,3.4,5.2,6.9,1.727626459,0,49,#N/A,23.5,,51.59574468,13.29787234,50.88652482,2021-2022,Reams Road ElementaryChesterfield County Public Schools,Reams Road ElementaryChesterfield County Public Schools,21,Chesterfield County,700,Reams Road Elementary
51,37.5316,-77.6135,510084000346,21730,Elementary,2022 - 2023,7.7,1.9,7.7,2.597402597,0,79,#N/A,8.6,,20.39274924,3.927492447,17.97583082,2021-2022,Robious ElementaryChesterfield County Public Schools,Robious ElementaryChesterfield County Public Schools,21,Chesterfield County,730,Robious Elementary
52,37.3853,-77.4848,510084000348,21720,Elementary,2022 - 2023,4.4,4.4,4.4,0.966183575,0,59,#N/A,23.4,,62.11180124,24.01656315,59.21325052,2021-2022,Salem Church ElementaryChesterfield County Public Schools,Salem Church ElementaryChesterfield County Public Schools,21,Chesterfield County,720,Salem Church Elementary
53,37.3957,-77.6424,510084000462,21861,Elementary,2022 - 2023,0,2.1,4.3,5.747126437,0,84,#N/A,10.8,,34.02555911,3.833865815,31.30990415,2021-2022,Alberta Smith ElementaryChesterfield County Public Schools,Alberta Smith ElementaryChesterfield County Public Schools,21,Chesterfield County,861,Alberta Smith Elementary
54,37.3212,-77.3905,510084001086,21780,Elementary,2022 - 2023,3.6,1.8,9.1,1.600886918,0,47,#N/A,30.3,,60.30405405,8.445945946,62.83783784,2021-2022,Marguerite F. Christian ElementaryChesterfield County Public Schools,Marguerite F. Christian ElementaryChesterfield County Public Schools,21,Chesterfield County,780,Marguerite F. Christian Elementary
55,37.4777,-77.6161,510084001835,21290,Elementary,2022 - 2023,2.3,2.3,0,5.479452055,0,77,#N/A,6.1,,15.25129983,3.119584055,15.42461005,2021-2022,W.W. Gordon ElementaryChesterfield County Public Schools,W.W. Gordon ElementaryChesterfield County Public Schools,21,Chesterfield County,290,W.W. Gordon Elementary
56,37.3826,-77.652,510084001903,21800,Elementary,2022 - 2023,3.1,3.1,3.1,0.786163522,0,89,#N/A,9.9,,22.24770642,4.013761468,25.80275229,2021-2022,Spring Run ElementaryChesterfield County Public Schools,Spring Run ElementaryChesterfield County Public Schools,21,Chesterfield County,800,Spring Run Elementary
57,37.3885,-77.5025,510084001989,21360,Elementary,2022 - 2023,6.3,4.8,11.1,4,0,72,#N/A,16.1,,35.87921847,8.170515098,40.4973357,2021-2022,O.B. Gates ElementaryChesterfield County Public Schools,O.B. Gates ElementaryChesterfield County Public Schools,21,Chesterfield County,360,O.B. Gates Elementary
58,37.4515,-77.6592,510084001990,21340,Elementary,2022 - 2023,0,2.2,4.3,1.018348624,0,84,#N/A,17.4,,26.1299435,5.93220339,18.6440678,2021-2022,Swift Creek ElementaryChesterfield County Public Schools,Swift Creek ElementaryChesterfield County Public Schools,21,Chesterfield County,340,Swift Creek Elementary
59,37.4203,-77.6737,510084002055,21150,Elementary,2022 - 2023,1.7,0,6.7,1.050314465,0,82,#N/A,18.1,,30.52256532,4.513064133,26.84085511,2021-2022,Clover Hill ElementaryChesterfield County Public Schools,Clover Hill ElementaryChesterfield County Public Schools,21,Chesterfield County,150,Clover Hill Elementary
60,37.4581,-77.602,510084002056,21380,Elementary,2022 - 2023,3.4,1.7,6.9,1.722772277,0,66,#N/A,20.6,,51.40625,9.0625,49.6875,2021-2022,Providence ElementaryChesterfield County Public Schools,Providence ElementaryChesterfield County Public Schools,21,Chesterfield County,380,Providence Elementary
61,37.4632,-77.6316,510084002097,21300,Elementary,2022 - 2023,2.9,4.3,4.3,0,0,72,#N/A,19.8,,29.83970407,7.644882861,25.40073983,2021-2022,Evergreen ElementaryChesterfield County Public Schools,Evergreen ElementaryChesterfield County Public Schools,21,Chesterfield County,300,Evergreen Elementary
62,37.4353,-77.5535,510084002098,21400,Elementary,2022 - 2023,5,1.7,3.3,1.620209059,0,60,#N/A,22.2,,44.63040446,10.041841,55.50906555,2021-2022,Jacobs Road ElementaryChesterfield County Public Schools,Jacobs Road ElementaryChesterfield County Public Schools,21,Chesterfield County,400,Jacobs Road Elementary
63,37.4166,-77.6101,510084002099,21410,Elementary,2022 - 2023,5.3,3.5,8.8,1.630434783,0,68,#N/A,20.3,,45.62211982,11.98156682,46.69738863,2021-2022,Thelma Crenshaw ElementaryChesterfield County Public Schools,Thelma Crenshaw ElementaryChesterfield County Public Schools,21,Chesterfield County,410,Thelma Crenshaw Elementary
64,37.4267,-77.6899,510084002176,21440,Elementary,2022 - 2023,1.8,0,3.6,1.588888889,0,81,#N/A,8.2,,8.457711443,1.741293532,14.4278607,2021-2022,Woolridge ElementaryChesterfield County Public Schools,Woolridge ElementaryChesterfield County Public Schools,21,Chesterfield County,440,Woolridge Elementary
65,37.3605,-77.4619,510084002177,21480,Elementary,2022 - 2023,8.3,3.3,3.3,1.554404145,0,74,#N/A,22,,49.7260274,6.849315068,52.19178082,2021-2022,Ecoff ElementaryChesterfield County Public Schools,Ecoff ElementaryChesterfield County Public Schools,21,Chesterfield County,480,Ecoff Elementary
66,37.339704,-77.340016,510084002779,21850,Elementary,2022 - 2023,4.2,14.1,11.3,1.656716418,0,77,#N/A,14.5,,52.49679898,29.44942382,64.53265045,2021-2022,Elizabeth Scott ElementaryChesterfield County Public Schools,Elizabeth Scott ElementaryChesterfield County Public Schools,21,Chesterfield County,850,Elizabeth Scott Elementary
67,37.379531,-77.712037,510084002780,21860,Elementary,2022 - 2023,3.7,0,3.7,0,0,81,#N/A,7.9,,14.34210526,3.289473684,19.73684211,2021-2022,Winterpock ElementaryChesterfield County Public Schools,Winterpock ElementaryChesterfield County Public Schools,21,Chesterfield County,860,Winterpock Elementary
68,37.48093,-77.696195,510084003066,2190,Elementary,2022 - 2023,0,0,7.4,3.539823009,0,84,#N/A,10,,11.73520562,1.303911735,17.75325978,2021-2022,Old Hundred ElementaryChesterfield County Public Schools,Old Hundred ElementaryChesterfield County Public Schools,21,Chesterfield County,90,Old Hundred Elementary
69,37.6853,-77.7954,510165000689,37260,Elementary,2022 - 2023,2.1,2.1,2.1,0,0,83,#N/A,11.5,,25.42372881,4.237288136,23.09322034,2021-2022,Randolph ElementaryGoochland County Public Schools,Randolph ElementaryGoochland County Public Schools,37,Goochland County,260,Randolph Elementary
70,37.7147,-77.5073,510183000769,42430,Elementary,2022 - 2023,5.1,0,5.1,2.358490566,0,63,#N/A,9.7,,50.88607595,12.65822785,35.18987342,2021-2022,Elmont ElementaryHanover County Public Schools,Elmont ElementaryHanover County Public Schools,42,Hanover County,430,Elmont Elementary
71,37.756,-77.4864,510183000770,42150,Elementary,2022 - 2023,2.4,0,2.4,1.617647059,0,,#N/A,9.4,,57.89473684,11.08033241,44.32132964,2021-2022,Henry Clay ElementaryHanover County Public Schools,Henry Clay ElementaryHanover County Public Schools,42,Hanover County,150,Henry Clay Elementary
72,37.770118,-77.474094,510183000771,42162,Elementary,2022 - 2023,0,2.5,2.5,2.148387097,0,54,#N/A,9.3,,54.03726708,10.55900621,36.02484472,2021-2022,John M. Gandy ElementaryHanover County Public Schools,John M. Gandy ElementaryHanover County Public Schools,42,Hanover County,162,John M. Gandy Elementary
73,37.611,-77.3792,510183000774,42420,Elementary,2022 - 2023,1.6,0,1.6,2.587912088,0,74,#N/A,12.7,,60.16260163,5.203252033,26.34146341,2021-2022,Mechanicsville ElementaryHanover County Public Schools,Mechanicsville ElementaryHanover County Public Schools,42,Hanover County,420,Mechanicsville Elementary
74,37.6651,-77.3396,510183000779,4230,Elementary,2022 - 2023,4.3,0,6.4,0,0,82,#N/A,9,,14.33278418,2.141680395,7.248764415,2021-2022,Rural Point ElementaryHanover County Public Schools,Rural Point ElementaryHanover County Public Schools,42,Hanover County,30,Rural Point Elementary
75,37.6456,-77.3843,510183000781,42290,Elementary,2022 - 2023,8.6,0,5.7,3.012048193,0,73,#N/A,7.1,,28.05194805,3.116883117,12.72727273,2021-2022,Washington-Henry ElementaryHanover County Public SchoolsHanover County Public Schools,Washington-Henry ElementaryHanover County Public Schools,42,Hanover County,290,Washington-Henry ElementaryHanover County Public Schools
76,37.6699,-77.4116,510183001617,42551,Elementary,2022 - 2023,3.3,3.3,5,4.561643836,0,84,#N/A,6.8,,11.31105398,2.570694087,11.8251928,2021-2022,Cool Spring ElementaryHanover County Public Schools,Cool Spring ElementaryHanover County Public Schools,42,Hanover County,551,Cool Spring Elementary
77,37.5932,-77.32,510183001995,4270,Elementary,2022 - 2023,0,0,0,2.631578947,0,64,#N/A,10.6,,41.36622391,2.84629981,14.61100569,2021-2022,Cold Harbor ElementaryHanover County Public Schools,Cold Harbor ElementaryHanover County Public Schools,42,Hanover County,70,Cold Harbor Elementary
78,37.7617,-77.6599,510183001996,4240,Elementary,2022 - 2023,2.5,0,2.5,5.203125,0,78,#N/A,6.2,,28.1938326,3.083700441,14.97797357,2021-2022,South Anna ElementaryHanover County Public Schools,South Anna ElementaryHanover County Public Schools,42,Hanover County,40,South Anna Elementary
79,37.6398,-77.3091,510183002535,42552,Elementary,2022 - 2023,4,0,0,5.194805195,0,81,#N/A,4.1,,22.47191011,2.247191011,14.04494382,2021-2022,Pole Green ElementaryHanover County Public Schools,Pole Green ElementaryHanover County Public Schools,42,Hanover County,552,Pole Green Elementary
80,37.62778,-77.337305,510183002772,42210,Elementary,2022 - 2023,2,0,2,2.631578947,0,75,#N/A,7.4,,37.25834798,3.690685413,17.92618629,2021-2022,Laurel Meadow ElementaryHanover County Public Schools,Laurel Meadow ElementaryHanover County Public Schools,42,Hanover County,210,Laurel Meadow Elementary
81,37.6951,-77.6141,510189000133,43710,Elementary,2022 - 2023,2.6,0,2.6,0,0,92,#N/A,3.9,,8.460236887,5.752961083,10.49069374,2021-2022,Shady Grove ElementaryHenrico County Public Schools,Shady Grove ElementaryHenrico County Public Schools,43,Henrico County,710,Shady Grove Elementary
82,37.6033,-77.505,510189000789,43530,Elementary,2022 - 2023,9.1,0,9.1,1.661129568,0,33,#N/A,14.5,,61.98979592,36.47959184,73.21428571,2021-2022,Charles M. Johnson ElementaryHenrico County Public Schools,Charles M. Johnson ElementaryHenrico County Public Schools,43,Henrico County,530,Charles M. Johnson Elementary
83,37.6319,-77.4423,510189000792,43590,Elementary,2022 - 2023,0,0,7.7,1.20979021,0,59,#N/A,14,,55.97484277,11.32075472,73.89937107,2021-2022,Chamberlayne ElementaryHenrico County Public Schools,Chamberlayne ElementaryHenrico County Public Schools,43,Henrico County,590,Chamberlayne Elementary
84,37.6002,-77.5204,510189000793,43400,Elementary,2022 - 2023,0,0,0,2.941176471,0,79,#N/A,11.1,,41.76136364,15.625,34.94318182,2021-2022,Crestview ElementaryHenrico County Public Schools,Crestview ElementaryHenrico County Public Schools,43,Henrico County,400,Crestview Elementary
85,37.5382,-77.293,510189000794,43120,Elementary,2022 - 2023,2.5,0,10,1.151631478,0,44,#N/A,26,,66.53696498,16.53696498,78.21011673,2021-2022,Cashell Donahoe ElementaryHenrico County Public Schools,Cashell Donahoe ElementaryHenrico County Public Schools,43,Henrico County,120,Cashell Donahoe Elementary
86,37.639,-77.5186,510189000796,43700,Elementary,2022 - 2023,2.5,2.5,7.5,1.309608541,0,43,#N/A,15.4,,61.0367893,42.47491639,66.88963211,2021-2022,Dumbarton ElementaryHenrico County Public Schools,Dumbarton ElementaryHenrico County Public Schools,43,Henrico County,700,Dumbarton Elementary
87,37.6195,-77.4901,510189000797,43680,Elementary,2022 - 2023,3.6,0,5.5,0.976109215,0,58,#N/A,12.9,,70.35175879,26.00502513,69.47236181,2021-2022,Elizabeth Holladay ElementaryHenrico County Public Schools,Elizabeth Holladay ElementaryHenrico County Public Schools,43,Henrico County,680,Elizabeth Holladay Elementary
88,37.6785,-77.5234,510189000801,4320,Elementary,2022 - 2023,0,0,5.1,3.221238938,0,81,#N/A,8,,22.68041237,6.701030928,16.49484536,2021-2022,Glen Allen ElementaryHenrico County Public Schools,Glen Allen ElementaryHenrico County Public Schools,43,Henrico County,20,Glen Allen Elementary
89,37.5801,-77.4011,510189000802,43380,Elementary,2022 - 2023,0,24.3,16.2,1.084895259,0,47,#N/A,30.4,,88.65740741,3.472222222,93.75,2021-2022,Glen Lea ElementaryHenrico County Public Schools,Glen Lea ElementaryHenrico County Public Schools,43,Henrico County,380,Glen Lea Elementary
90,37.6236,-77.5596,510189000812,43620,Elementary,2022 - 2023,0,0,0,3.8647343,0,82,#N/A,9.8,,41.6988417,15.63706564,30.88803089,2021-2022,Jackson Davis ElementaryHenrico County Public Schools,Jackson Davis ElementaryHenrico County Public Schools,43,Henrico County,620,Jackson Davis Elementary
91,37.5363,-77.366,510189000813,43660,Elementary,2022 - 2023,3.3,3.3,10,1.105006105,0,52,#N/A,22.4,,75.21551724,7.112068966,91.59482759,2021-2022,Jacob L. Adams ElementaryHenrico County Public Schools,Jacob L. Adams ElementaryHenrico County Public Schools,43,Henrico County,660,Jacob L. Adams Elementary
92,37.5967,-77.4285,510189000814,43430,Elementary,2022 - 2023,8.6,2.9,20,1.080143541,0,23,#N/A,21.2,,84.64912281,7.236842105,90.57017544,2021-2022,Laburnum ElementaryHenrico County Public Schools,Laburnum ElementaryHenrico County Public Schools,43,Henrico County,430,Laburnum Elementary
93,37.6135,-77.4787,510189000815,43370,Elementary,2022 - 2023,0,0,0,1.55952381,0,53,#N/A,12.5,,56.39269406,15.06849315,56.62100457,2021-2022,Lakeside ElementaryHenrico County Public Schools,Lakeside ElementaryHenrico County Public Schools,43,Henrico County,370,Lakeside Elementary
94,37.6548,-77.4641,510189000816,4350,Elementary,2022 - 2023,2.6,2.6,0,1.672690763,0,46,#N/A,22.8,,67.72151899,11.60337553,66.03375527,2021-2022,Longdale ElementaryHenrico County Public Schools,Longdale ElementaryHenrico County Public Schools,43,Henrico County,50,Longdale Elementary
95,37.5938,-77.5824,510189000817,43540,Elementary,2022 - 2023,0,2.9,0,4.081632653,0,71,#N/A,11.7,,43.33843798,15.46707504,38.2848392,2021-2022,Maybeury ElementaryHenrico County Public Schools,Maybeury ElementaryHenrico County Public Schools,43,Henrico County,540,Maybeury Elementary
96,37.5195,-77.376,510189000818,43210,Elementary,2022 - 2023,0,0,14.3,0.894101877,0,44,#N/A,13.8,,75.56270096,3.215434084,82.63665595,2021-2022,Montrose ElementaryHenrico County Public Schools,Montrose ElementaryHenrico County Public Schools,43,Henrico County,210,Montrose Elementary
97,37.6083,-77.5794,510189000819,43440,Elementary,2022 - 2023,0,0,0,1.637254902,0,82,#N/A,5.7,,23.16384181,4.802259887,16.66666667,2021-2022,Pemberton ElementaryHenrico County Public Schools,Pemberton ElementaryHenrico County Public Schools,43,Henrico County,440,Pemberton Elementary
98,37.6024,-77.59,510189000820,43570,Elementary,2022 - 2023,0,3.2,0,0,0,69,#N/A,10.2,,46.9348659,19.54022989,33.52490421,2021-2022,Pinchbeck ElementaryHenrico County Public Schools,Pinchbeck ElementaryHenrico County Public Schools,43,Henrico County,570,Pinchbeck Elementary
99,37.6409,-77.5465,510189000821,43630,Elementary,2022 - 2023,3.1,6.3,3.1,2.352941176,0,60,#N/A,13.7,,58.82352941,25.708061,46.62309368,2021-2022,R.C. Longan ElementaryHenrico County Public Schools,R.C. Longan ElementaryHenrico County Public Schools,43,Henrico County,630,R.C. Longan Elementary
100,37.5677,-77.3892,510189000822,43420,Elementary,2022 - 2023,6.1,12.1,12.1,1.063063063,0,37,#N/A,27,,75.93457944,3.971962617,93.22429907,2021-2022,Harold Macon Ratcliffe ElementaryHenrico County Public Schools,Harold Macon Ratcliffe ElementaryHenrico County Public Schools,43,Henrico County,420,Harold Macon Ratcliffe Elementary
101,37.60552,-77.559643,510189000823,4390,Elementary,2022 - 2023,0,0,3.2,2.008032129,0,44,#N/A,12.6,,59.01287554,42.91845494,56.65236052,2021-2022,Ridge ElementaryHenrico County Public Schools,Ridge ElementaryHenrico County Public Schools,43,Henrico County,90,Ridge Elementary
102,37.607,-77.6283,510189000824,43650,Elementary,2022 - 2023,0,0,6.3,1.575892857,0,63,#N/A,13.1,,52.4122807,13.59649123,38.81578947,2021-2022,Ruby F. Carver ElementaryHenrico County Public Schools,Ruby F. Carver ElementaryHenrico County Public Schools,43,Henrico County,650,Ruby F. Carver Elementary
103,37.5245,-77.3129,510189000825,43220,Elementary,2022 - 2023,0,0,10,1.20505618,0,53,#N/A,8.6,,70.21276596,8.510638298,50.53191489,2021-2022,Sandston ElementaryHenrico County Public Schools,Sandston ElementaryHenrico County Public Schools,43,Henrico County,220,Sandston Elementary
104,37.5162,-77.3047,510189000826,43550,Elementary,2022 - 2023,0,0,8.3,1.476635514,0,58,#N/A,16.2,,61.17021277,2.659574468,48.13829787,2021-2022,Seven Pines ElementaryHenrico County Public Schools,Seven Pines ElementaryHenrico County Public Schools,43,Henrico County,550,Seven Pines Elementary
105,37.6497,-77.6122,510189000827,4360,Elementary,2022 - 2023,3.1,0,0,0,0,78,#N/A,5.2,,19.89247312,11.11111111,14.15770609,2021-2022,Short Pump ElementaryHenrico County Public Schools,Short Pump ElementaryHenrico County Public Schools,43,Henrico County,60,Short Pump Elementary
106,37.6186,-77.537,510189000828,43480,Elementary,2022 - 2023,0,0,5.7,0,0,58,#N/A,10.8,,53.93700787,30.31496063,49.01574803,2021-2022,Skipwith ElementaryHenrico County Public Schools,Skipwith ElementaryHenrico County Public Schools,43,Henrico County,480,Skipwith Elementary
107,37.6026,-77.5388,510189000829,4310,Elementary,2022 - 2023,0,4.3,13,0,0,74,#N/A,11.7,,39.52702703,12.16216216,33.44594595,2021-2022,Three Chopt ElementaryHenrico County Public Schools,Three Chopt ElementaryHenrico County Public Schools,43,Henrico County,10,Three Chopt Elementary
108,37.6384,-77.4917,510189000830,43490,Elementary,2022 - 2023,2.9,2.9,5.9,1.666666667,0,67,#N/A,12.3,,53.81750466,18.62197393,48.78957169,2021-2022,Maude Trevvett ElementaryHenrico County Public Schools,Maude Trevvett ElementaryHenrico County Public Schools,43,Henrico County,490,Maude Trevvett Elementary
109,37.5842,-77.5533,510189000831,43360,Elementary,2022 - 2023,0,0,0,16.82352941,0,92,#N/A,3.6,,9.538461538,2.307692308,5.538461538,2021-2022,Tuckahoe ElementaryHenrico County Public Schools,Tuckahoe ElementaryHenrico County Public Schools,43,Henrico County,360,Tuckahoe Elementary
110,37.5718,-77.3642,510189000869,43320,Elementary,2022 - 2023,0,5.4,2.7,1.097502973,0,46,#N/A,18.1,,64.76578411,7.535641548,92.87169043,2021-2022,Arthur Ashe Jr. Elementary Henrico County Public Schools,Arthur Ashe Jr. ElementaryHenrico County Public Schools,43,Henrico County,320,Arthur Ashe Jr. Elementary
111,37.6572,-77.5653,510189001384,43230,Elementary,2022 - 2023,2.8,0,2.8,2.055555556,0,78,#N/A,8.1,,41.29746835,15.82278481,23.10126582,2021-2022,Springfield Park ElementaryHenrico County Public Schools,Springfield Park ElementaryHenrico County Public Schools,43,Henrico County,230,Springfield Park Elementary
112,37.6558,-77.6391,510189001624,43270,Elementary,2022 - 2023,2.7,0,2.7,6.795918367,0,81,#N/A,6.6,,13.72881356,6.440677966,10.16949153,2021-2022,Nuckols Farm ElementaryHenrico County Public Schools,Nuckols Farm ElementaryHenrico County Public Schools,43,Henrico County,270,Nuckols Farm Elementary
113,37.6682,-77.5445,510189001912,43300,Elementary,2022 - 2023,0,0,0,0,0,89,#N/A,7,,29.54545455,8.143939394,14.77272727,2021-2022,Echo Lake ElementaryHenrico County Public Schools,Echo Lake ElementaryHenrico County Public Schools,43,Henrico County,300,Echo Lake Elementary
114,37.635,-77.6322,510189002123,43150,Elementary,2022 - 2023,0,0,0,3.479166667,0,89,#N/A,2.8,,15.25735294,5.147058824,9.926470588,2021-2022,Gayton ElementaryHenrico County Public Schools,Gayton ElementaryHenrico County Public Schools,43,Henrico County,150,Gayton Elementary
115,37.4369,-77.3448,510189002124,43450,Elementary,2022 - 2023,0,0,0,1.082792208,0,#N/A,#N/A,23.8,,55.58912387,3.021148036,67.67371601,2021-2022,Anthony P. Mehfoud ElementaryHenrico County Public Schools,Anthony P. Mehfoud ElementaryHenrico County Public Schools,43,Henrico County,450,Anthony P. Mehfoud Elementary
116,37.6871,-77.579,510189002410,43240,Elementary,2022 - 2023,2.2,0,2.2,0,0,90,#N/A,8.8,,7.486631016,6.016042781,5.748663102,2021-2022,Rivers Edge ElementaryHenrico County Public Schools,Rivers Edge ElementaryHenrico County Public Schools,43,Henrico County,240,Rivers Edge Elementary
117,37.671,-77.4879,510189002441,43260,Elementary,2022 - 2023,2.6,0,0,1.333333333,0,80,#N/A,4.4,,47.5,11.5,40,2021-2022,Greenwood Elementary Henrico County Public Schools,Greenwood ElementaryHenrico County Public Schools,43,Henrico County,260,Greenwood Elementary
118,37.6724,-77.5991,510189002536,43310,Elementary,2022 - 2023,0,0,0,0,0,93,#N/A,10.4,,10.42047532,11.3345521,11.3345521,2021-2022,Twin Hickory ElementaryHenrico County Public Schools,Twin Hickory ElementaryHenrico County Public Schools,43,Henrico County,310,Twin Hickory Elementary
119,37.660466,-77.614046,510189002756,4393,Elementary,2022 - 2023,4.3,0,4.3,4.273504274,0,84,#N/A,14.6,,17.56756757,17.26726727,18.91891892,2021-2022,Colonial Trail ElementaryHenrico County Public Schools,Colonial Trail ElementaryHenrico County Public Schools,43,Henrico County,93,Colonial Trail Elementary
120,37.6927,-77.6308,510189002953,4382,Elementary,2022 - 2023,0,0,3,2.352941176,0,87,#N/A,6,,11.96754564,3.853955375,11.76470588,2021-2022,David A. Kaechele Elementary Henrico County Public Schools,David A. Kaechele ElementaryHenrico County Public Schools,43,Henrico County,82,David A. Kaechele Elementary
121,37.516619,-77.44333,510324001357,123170,Elementary,2022 - 2023,,2.9,31.4,1.12748538,3,18,#N/A,31.9,,85.49618321,6.615776081,95.1653944,2021-2022,Blackwell ElementaryRichmond City Public Schools,Blackwell ElementaryRichmond City Public Schools,123,Richmond City,170,Blackwell Elementary
122,37.490059,-77.476578,510324001361,1231440,Elementary,2022 - 2023,,1.7,13.6,2.378787879,0,19,#N/A,12.5,,53.84615385,79.4489093,97.35935706,2021-2022,Cardinal ElementaryRichmond City Public Schools,Cardinal ElementaryRichmond City Public Schools,123,Richmond City,1440,Cardinal Elementary
123,37.516227,-77.502759,510324001363,1231400,Elementary,2022 - 2023,,5.6,5.6,1.086572438,4,44,#N/A,19.3,,74.74489796,32.14285714,90.81632653,2021-2022,Elizabeth D. Redd ElementaryRichmond City Public Schools,Elizabeth D. Redd ElementaryRichmond City Public Schools,123,Richmond City,1400,Elizabeth D. Redd Elementary
124,37.510994,-77.466436,510324001367,123210,Elementary,2022 - 2023,,11.1,27.8,1.020725389,1,32,#N/A,14.2,,80.37974684,15.18987342,93.03797468,2021-2022,Swansboro ElementaryRichmond City Public Schools,Swansboro ElementaryRichmond City Public Schools,123,Richmond City,210,Swansboro Elementary
125,37.489169,-77.508759,510324001369,1231470,Elementary,2022 - 2023,,2.2,26.1,1.537190083,2,30,#N/A,23.3,,69.23076923,51.33437991,97.33124019,2021-2022,G.H. Reid ElementaryRichmond City Public Schools,G.H. Reid ElementaryRichmond City Public Schools,123,Richmond City,1470,G.H. Reid Elementary
126,37.476913,-77.489299,510324001378,1231710,Elementary,2022 - 2023,,2.2,13.3,1.144329897,3,42,#N/A,23.1,,72.57462687,42.7238806,93.28358209,2021-2022,J.L. Francis ElementaryRichmond City Public Schools,J.L. Francis ElementaryRichmond City Public Schools,123,Richmond City,1710,J.L. Francis Elementary
127,37.548405,-77.482372,510324001379,123600,Elementary,2022 - 2023,,7.7,11.5,1.740963855,0,50,#N/A,14.1,,53.99239544,4.562737643,58.55513308,2021-2022,John B. Cary ElementaryRichmond City Public Schools,John B. Cary ElementaryRichmond City Public Schools,123,Richmond City,600,John B. Cary Elementary
128,37.564115,-77.499738,510324001383,123580,Elementary,2022 - 2023,,0,0,1.964705882,0,87,#N/A,3.4,,12.00923788,3.464203233,14.3187067,2021-2022,Mary Munford ElementaryRichmond City Public Schools,Mary Munford ElementaryRichmond City Public Schools,123,Richmond City,580,Mary Munford Elementary
129,37.496616,-77.442124,510324001387,123330,Elementary,2022 - 2023,,9.6,25,1.318181818,7,23,#N/A,44.5,,83.5016835,20.70707071,96.63299663,2021-2022,Oak Grove/Bellemeade ElementaryRichmond City Public Schools,Oak Grove/Bellemeade ElementaryRichmond City Public Schools,123,Richmond City,330,Oak Grove/Bellemeade Elementary
130,37.54403,-77.534058,510324001400,1231480,Elementary,2022 - 2023,,2.8,13.9,1.141654979,1,47,#N/A,22.9,,62.96296296,7.175925926,83.56481481,2021-2022,Southampton ElementaryRichmond City Public Schools,Southampton ElementaryRichmond City Public Schools,123,Richmond City,1480,Southampton Elementary
131,37.521346,-77.492221,510324001404,123660,Elementary,2022 - 2023,,0,6.1,1.383136095,5,53,#N/A,27.4,,74.59459459,3.783783784,75.94594595,2021-2022,Westover Hills ElementaryRichmond City Public Schools,Westover Hills ElementaryRichmond City Public Schools,123,Richmond City,660,Westover Hills Elementary
132,37.47609,-77.479075,510324001861,1231100,Elementary,2022 - 2023,,9.8,2,1.701298701,0,29,#N/A,16.5,,74.44794953,42.27129338,96.21451104,2021-2022,Broad Rock ElementaryRichmond City Public Schools,Broad Rock ElementaryRichmond City Public Schools,123,Richmond City,1100,Broad Rock Elementary
133,37.546249,-77.582898,510324001863,1231640,Elementary,2022 - 2023,,3.8,7.7,1.372212693,0,46,#N/A,15.2,,48.86363636,12.12121212,74.24242424,2021-2022,J.B. Fisher ElementaryRichmond City Public Schools,J.B. Fisher ElementaryRichmond City Public Schools,123,Richmond City,1640,J.B. Fisher Elementary
134,37.506195,-77.513344,510324001928,1233107,Elementary,2022 - 2023,,11.9,23.8,1.546822742,2,43,#N/A,20.8,,78.53309481,26.11806798,94.27549195,2021-2022,Miles Jones ElementaryRichmond City Public Schools,Miles Jones ElementaryRichmond City Public Schools,123,Richmond City,3107,Miles Jones Elementary
135,37.4081,-77.617,510084000053,21631,Middle,2022 - 2023,8.9,9.8,14.3,1.754901961,1,#N/A,#N/A,20.8,,32.9001368,3.146374829,34.26812585,2021-2022,Bailey Bridge MiddleChesterfield County Public Schools,Bailey Bridge MiddleChesterfield County Public Schools,21,Chesterfield County,631,Bailey Bridge Middle
136,37.3017,-77.431,510084000321,21420,Middle,2022 - 2023,0,22.9,16.9,1.337209302,10,#N/A,#N/A,32.2,,54.05669599,3.225806452,65.20039101,2021-2022,Carver MiddleChesterfield County Public Schools,Carver MiddleChesterfield County Public Schools,21,Chesterfield County,420,Carver Middle
137,37.4584,-77.4703,510084000329,21670,Middle,2022 - 2023,8.9,19.8,18.8,1.405263158,6,#N/A,#N/A,39.9,,63.54679803,24.98240676,91.97748065,2021-2022,Falling Creek MiddleChesterfield County Public Schools,Falling Creek MiddleChesterfield County Public Schools,21,Chesterfield County,670,Falling Creek Middle
138,37.4689,-77.5292,510084000338,21600,Middle,2022 - 2023,2.3,7,16.3,1.434883721,3,#N/A,#N/A,28.8,,47.50679964,7.615593835,72.43880326,2021-2022,Manchester MiddleChesterfield County Public Schools,Manchester MiddleChesterfield County Public Schools,21,Chesterfield County,600,Manchester Middle
139,37.5022,-77.6491,510084000343,2140,Middle,2022 - 2023,2,1,6.1,3.2375,1,#N/A,#N/A,14.9,,14.25438596,0.950292398,13.81578947,2021-2022,Midlothian MiddleChesterfield County Public Schools,Midlothian MiddleChesterfield County Public Schools,21,Chesterfield County,40,Midlothian Middle
140,37.4883,-77.543,510084000344,21690,Middle,2022 - 2023,5.1,3.8,10.3,1.50137741,5,#N/A,#N/A,36.1,,56.50140318,13.75116932,70.72029935,2021-2022,Providence MiddleChesterfield County Public Schools,Providence MiddleChesterfield County Public Schools,21,Chesterfield County,690,Providence Middle
141,37.5296,-77.6134,510084000347,21760,Middle,2022 - 2023,0,2.4,4.7,3.019607843,0,#N/A,#N/A,12.3,,26.04074402,4.517271922,23.29495128,2021-2022,Robious MiddleChesterfield County Public Schools,Robious MiddleChesterfield County Public Schools,21,Chesterfield County,760,Robious Middle
142,37.3846,-77.4866,510084000349,21722,Middle,2022 - 2023,2.7,9.5,6.8,1.17571885,2,#N/A,#N/A,29.6,,55.8726674,11.96487377,65.20307355,2021-2022,Salem Church MiddleChesterfield County Public Schools,Salem Church MiddleChesterfield County Public Schools,21,Chesterfield County,722,Salem Church Middle
143,37.44,-77.6452,510084001834,21270,Middle,2022 - 2023,1.2,6.2,11.1,2.283333333,0,#N/A,#N/A,14,,27.26457399,2.331838565,28.25112108,2021-2022,Swift Creek MiddleChesterfield County Public Schools,Swift Creek MiddleChesterfield County Public Schools,21,Chesterfield County,270,Swift Creek Middle
144,37.466155,-77.669864,510084002754,21880,Middle,2022 - 2023,1.8,5.4,0.9,2.8125,3,#N/A,#N/A,14,,14.92271106,0.594530321,21.28418549,2021-2022,Tomahawk Creek MiddleChesterfield County Public Schools,Tomahawk Creek MiddleChesterfield County Public Schools,21,Chesterfield County,880,Tomahawk Creek Middle
145,37.336,-77.3425,510084002767,21870,Middle,2022 - 2023,2,2.9,10.8,1.176678445,3,#N/A,#N/A,18.8,,44.70149254,7.686567164,53.73134328,2021-2022,Elizabeth Davis MiddleChesterfield County Public Schools,Elizabeth Davis MiddleChesterfield County Public Schools,21,Chesterfield County,870,Elizabeth Davis Middle
146,37.6993,-77.8967,510165000687,37340,Middle,2022 - 2023,6.3,4.7,7.8,3.058333333,0,#N/A,#N/A,7.2,,32.22996516,1.916376307,22.99651568,2021-2022,Goochland MiddleGoochland County Public Schools,Goochland MiddleGoochland County Public Schools,37,Goochland County,340,Goochland Middle
147,37.7808,-77.5331,510183000773,42450,Middle,2022 - 2023,3.4,2.3,17,2.026548673,0,#N/A,#N/A,8.4,,42.70032931,4.390779363,24.69813392,2021-2022,Liberty MiddleHanover County Public Schools,Liberty MiddleHanover County Public Schools,42,Hanover County,450,Liberty Middle
148,37.6174,-77.341,510183000780,42440,Middle,2022 - 2023,6,4.8,4.8,2.420560748,2,#N/A,#N/A,10.1,,43.68308351,2.034261242,17.66595289,2021-2022,Bell Creek MiddleHanover County Public Schools,Bell Creek MiddleHanover County Public Schools,42,Hanover County,440,Bell Creek Middle
149,37.6662,-77.4117,510183002191,4261,Middle,2022 - 2023,3.2,6.3,5.3,2.526315789,0,#N/A,#N/A,6.2,,21.13174182,1.149425287,11.5826702,2021-2022,Chickahominy MiddleHanover County Public Schools,Chickahominy MiddleHanover County Public Schools,42,Hanover County,61,Chickahominy Middle
150,37.6667,-77.6102,510189000123,4380,Middle,2022 - 2023,1.3,2.6,10.5,3.378640777,0,#N/A,#N/A,7,,13.1294964,3.327338129,15.64748201,2021-2022,Short Pump MiddleHenrico County Public Schools,Short Pump MiddleHenrico County Public Schools,43,Henrico County,80,Short Pump Middle
151,37.642,-77.4819,510189000790,43500,Middle,2022 - 2023,2.3,3.5,14,1.433408578,0,#N/A,#N/A,25.2,,61.73184358,20.20484171,73.55679702,2021-2022,Brookland MiddleHenrico County Public Schools,Brookland MiddleHenrico County Public Schools,43,Henrico County,500,Brookland Middle
152,37.5455,-77.3597,510189000799,43510,Middle,2022 - 2023,6.2,9.9,24.7,1.072072072,0,#N/A,#N/A,24.9,,64.64032421,2.026342452,94.02228977,2021-2022,Fairfield MiddleHenrico County Public Schools,Fairfield MiddleHenrico County Public Schools,43,Henrico County,510,Fairfield Middle
153,37.6255,-77.4813,510189000800,43390,Middle,2022 - 2023,2.6,0,9.1,3.6,0,#N/A,#N/A,12.5,,32.36940299,3.264925373,27.89179104,2021-2022,George H. Moody MiddleHenrico County Public Schools,George H. Moody MiddleHenrico County Public Schools,43,Henrico County,390,George H. Moody Middle
154,37.6083,-77.5818,510189000803,43690,Middle,2022 - 2023,2.5,0,12.7,1.932735426,0,#N/A,#N/A,17.7,,45,14.61538462,45.09615385,2021-2022,Quioccasin MiddleHenrico County Public Schools,Quioccasin MiddleHenrico County Public Schools,43,Henrico County,690,Quioccasin Middle
155,37.6084,-77.5609,510189000832,43520,Middle,2022 - 2023,2.8,1.4,4.2,2.87704918,0,#N/A,#N/A,14.2,,37.78664008,10.56829511,30.70787637,2021-2022,Tuckahoe MiddleHenrico County Public Schools,Tuckahoe MiddleHenrico County Public Schools,43,Henrico County,520,Tuckahoe Middle
156,37.6205,-77.4217,510189001622,43250,Middle,2022 - 2023,6.8,2.7,14.9,1.410104012,0,#N/A,#N/A,20.4,,55.5847569,1.97109067,71.35348226,2021-2022,L. Douglas Wilder MiddleHenrico County Public Schools,L. Douglas Wilder MiddleHenrico County Public Schools,43,Henrico County,250,L. Douglas Wilder Middle
157,37.4768,-77.3729,510189001850,43130,Middle,2022 - 2023,2.5,15.2,20.3,1.073939394,0,#N/A,#N/A,29.8,,65.05235602,2.879581152,89.52879581,2021-2022,John Rolfe MiddleHenrico County Public Schools,John Rolfe MiddleHenrico County Public Schools,43,Henrico County,130,John Rolfe Middle
158,37.6457,-77.6078,510189001911,43280,Middle,2022 - 2023,1.7,3.4,8.6,2.881818182,0,#N/A,#N/A,8.7,,25.33333333,4,18.90909091,2021-2022,Pocahontas MiddleHenrico County Public Schools,Pocahontas MiddleHenrico County Public Schools,43,Henrico County,280,Pocahontas Middle
159,37.6584,-77.5379,510189002440,43100,Middle,2022 - 2023,1.5,7.4,8.8,2.097959184,0,#N/A,#N/A,11,,37.51507841,4.342581423,32.56936068,2021-2022,Hungary Creek Middle Henrico County Public Schools,HUNGARY CREEK MIDDLEHenrico County Public Schools,43,Henrico County,100,Hungary Creek Middle
160,37.5036,-77.233,510189002757,4392,Middle,2022 - 2023,0,4.3,17.4,1.194078947,0,#N/A,#N/A,13.9,,61.91780822,4.794520548,74.93150685,2021-2022,Elko MiddleHenrico County Public Schools,Elko MiddleHenrico County Public Schools,43,Henrico County,92,Elko Middle
161,37.689779,-77.590222,510189002833,4395,Middle,2022 - 2023,1.8,1.8,7,1.8125,0,#N/A,#N/A,8.7,,34.47058824,8.588235294,24.11764706,2021-2022,Holman Middle Henrico County Public Schools,HOLMAN MIDDLEHenrico County Public Schools,43,Henrico County,95,Holman Middle
162,37.551387,-77.93712,510303001269,72130,Middle,2022 - 2023,11.6,3.5,11.6,1.925,0,#N/A,#N/A,13.7,,25.95262616,1.235839341,9.47476828,2021-2022,Powhatan MiddlePowhatan County Public Schools,Powhatan MiddlePowhatan County Public Schools,72,Powhatan County,130,Powhatan Middle
163,37.562397,-77.481584,510324001351,12330,Middle,2022 - 2023,,14.6,18.8,1.598245614,11,#N/A,#N/A,21.6,,62.7753304,2.202643172,63.87665198,2021-2022,Albert Hill MiddleRichmond City Public Schools,Albert Hill MiddleRichmond City Public Schools,123,Richmond City,30,Albert Hill Middle
164,37.596354,-77.446887,510324001374,123470,Middle,2022 - 2023,,28.3,28.3,1.097762073,26,#N/A,#N/A,20,,79.81438515,3.480278422,88.63109049,2021-2022,Henderson MiddleRichmond City Public Schools,Henderson MiddleRichmond City Public Schools,123,Richmond City,470,Henderson Middle
165,37.521461,-77.513764,510324001894,1233105,Middle,2022 - 2023,,7.3,30.9,1.186968839,8,#N/A,#N/A,22.5,,71.00917431,7.706422018,88.99082569,2021-2022,Lucille M. Brown MiddleRichmond City Public Schools,Lucille M. Brown MiddleRichmond City Public Schools,123,Richmond City,3105,Lucille M. Brown Middle
166,37.472983,-77.469725,510324002078,123480,Middle,2022 - 2023,,9.1,27.3,1.273255814,23,#N/A,#N/A,17.2,,74.95908347,27.00490998,95.58101473,2021-2022,Thomas C. Boushall MiddleRichmond City Public Schools,Thomas C. Boushall MiddleRichmond City Public Schools,123,Richmond City,480,Thomas C. Boushall Middle
167,37.4815,-77.509631,510324003019,1231631,Middle,2022 - 2023,,14.6,25.2,1.506493506,8,#N/A,#N/A,30.9,,67.88135593,35.93220339,95.93220339,2021-2022,River City MiddleRichmond City Public Schools,River City MiddleRichmond City Public Schools,123,Richmond City,1631,River City Middle
168,37.351,-77.0763,510072000258,19100,High,2022 - 2023,0,11.5,19.2,0.914185639,1,#N/A, 0.6 ,49.6,21.42857143,61.13360324,<10*,55.06072874,2021-2022,Charles City County HighCharles City County Public Schools,Charles City County HighCharles City County Public Schools,19,Charles City County,100,Charles City County High
169,37.3482,-77.4725,510084001605,2130,Other,2022 - 2023,4.4,2.2,11.1,1.636986301,8,#N/A, 0.4 ,63.4,4.444444444,62.24899598,<10*,63.05220884,2021-2022,Carver College and Career AcademyChesterfield County Public Schools,Carver College and Career AcademyChesterfield County Public Schools,21,Chesterfield County,30,Carver College and Career Academy
170,37.52211,-77.802527,510303001268,7211,High,2022 - 2023,9.8,4.5,8.9,1.606060606,2,#N/A, 23.4 ,22.4,48.21917808,25.21246459,<10*,10.76487252,2021-2022,Powhatan HighPowhatan County Public Schools,Powhatan HighPowhatan County Public Schools,72,Powhatan County,11,Powhatan High
171,37.537675,-77.450857,510324001373,12390,High,2022 - 2023,,6.7,6.7,0,0,#N/A, 76.6 ,5.5,93.47826087,36.95652174,<10*,55.43478261,2021-2022,Open HighRichmond City Public Schools,Open HighRichmond City Public Schools,123,Richmond City,90,Open High
172,37.57099,-77.429854,510324002075,123452,High,2022 - 2023,,0,13.6,1.448695652,0,#N/A, 52.5 ,5.6,100,36.5,<10*,67,2021-2022,Richmond Community HighRichmond City Public Schools,Richmond Community HighRichmond City Public Schools,123,Richmond City,452,Richmond Community High
173,37.549324,-77.441221,510324002307,1233110,Other,2022 - 2023,,,#N/A,1.060335196,25,#N/A,#N/A,92.2,1.612903226,89.50617284,<10*,93.20987654,2021-2022,Richmond AlternativeRichmond City Public Schools,Richmond AlternativeRichmond City Public Schools,123,Richmond City,3110,Richmond Alternative
174,37.3475,-77.0763,510072000260,1980,Elementary,2022 - 2023,8.3,0,12.5,1.074358974,1,51,#N/A,24.9,,64.44444444,<10*,44.12698413,2021-2022,Charles City County ElementaryCharles City County Public Schools,Charles City County ElementaryCharles City County Public Schools,19,Charles City County,80,Charles City County Elementary
175,37.5493,-77.6525,510084000762,21510,Elementary,2022 - 2023,2.3,0,9.1,0,0,90,#N/A,4.5,,3.776683087,<10*,5.090311987,2021-2022,Bettie Weaver ElementaryChesterfield County Public Schools,Bettie Weaver ElementaryChesterfield County Public Schools,21,Chesterfield County,510,Bettie Weaver Elementary
176,37.757,-78.0577,510165000683,37120,Elementary,2022 - 2023,8.1,0,2.7,5.434782609,0,68,#N/A,13.6,,48.4375,<10*,23.125,2021-2022,Byrd ElementaryGoochland County Public Schools,Byrd ElementaryGoochland County Public Schools,37,Goochland County,120,Byrd Elementary
177,37.696033,-77.890089,510165000685,37360,Elementary,2022 - 2023,4.4,0,2.2,1.886792453,0,70,#N/A,10.6,,29.19896641,<10*,16.02067183,2021-2022,Goochland ElementaryGoochland County Public Schools,Goochland ElementaryGoochland County Public Schools,37,Goochland County,360,Goochland Elementary
178,37.6262,-77.2964,510183000764,42360,Elementary,2022 - 2023,0,0,0,0,0,72,#N/A,6.5,,18.81188119,<10*,8.415841584,2021-2022,Battlefield Park ElementaryHanover County Public Schools,Battlefield Park ElementaryHanover County Public Schools,42,Hanover County,360,Battlefield Park Elementary
179,37.9333,-77.6418,510183000765,4220,Elementary,2022 - 2023,0,0,0,0,0,61,#N/A,12.7,,33.56164384,<10*,5.821917808,2021-2022,Beaverdam ElementaryHanover County Public Schools,Beaverdam ElementaryHanover County Public Schools,42,Hanover County,20,Beaverdam Elementary
180,37.677859,-77.389277,510183000777,42410,Elementary,2022 - 2023,8.5,2.1,8.5,0,0,82,#N/A,4.5,,13.04347826,<10*,11.65217391,2021-2022,Pearson's Corner ElementaryHanover County Public Schools,Pearson's Corner ElementaryHanover County Public Schools,42,Hanover County,410,Pearson's Corner Elementary
181,37.6909,-77.3894,510183002506,42200,Elementary,2022 - 2023,0,0,1.8,9.259259259,0,78,#N/A,4.4,,14.83594864,<10*,11.84022825,2021-2022,Kersey Creek ElementaryHanover County Public Schools,Kersey Creek ElementaryHanover County Public Schools,42,Hanover County,200,Kersey Creek Elementary
182,37.4825,-77.3675,510189000788,43470,Elementary,2022 - 2023,3.2,0,16.1,1.039106145,0,46,#N/A,20.2,,66.34146341,<10*,94.14634146,2021-2022,George F. Baker ElementaryHenrico County Public Schools,George F. Baker ElementaryHenrico County Public Schools,43,Henrico County,470,George F. Baker Elementary
183,37.533934,-77.320396,510189000798,43200,Elementary,2022 - 2023,5.9,11.8,14.7,1.12160414,0,30,#N/A,31.3,,79.68337731,<10*,82.32189974,2021-2022,Fair Oaks ElementaryHenrico County Public Schools,Fair Oaks ElementaryHenrico County Public Schools,43,Henrico County,200,Fair Oaks Elementary
184,37.5429,-77.3406,510189000808,43640,Elementary,2022 - 2023,0,29.7,5.4,0.993296089,0,26,#N/A,31.1,,82.51879699,<10*,93.60902256,2021-2022,Highland Springs ElementaryHenrico County Public Schools,Highland Springs ElementaryHenrico County Public Schools,43,Henrico County,640,Highland Springs Elementary
185,37.4446,-77.3545,510189000834,43290,Elementary,2022 - 2023,0,4.5,9.1,1.251101322,0,49,#N/A,14.1,,49.04942966,<10*,76.04562738,2021-2022,Varina ElementaryHenrico County Public Schools,Varina ElementaryHenrico County Public Schools,43,Henrico County,290,Varina Elementary
186,37.4675,-77.3247,510189001128,43330,Elementary,2022 - 2023,5.6,5.6,8.3,0.900133156,0,49,#N/A,18.1,,63.19148936,<10*,79.78723404,2021-2022,Henry D. Ward ElementaryHenrico County Public Schools,Henry D. Ward ElementaryHenrico County Public Schools,43,Henrico County,330,Henry D. Ward Elementary
187,37.5711,-77.3795,510189002788,4394,Elementary,2022 - 2023,4.9,2.4,9.8,1.092896175,0,63,#N/A,17.3,,67.67676768,<10*,93.13131313,2021-2022,Harvie ElementaryHenrico County Public Schools,Harvie ElementaryHenrico County Public Schools,43,Henrico County,94,Harvie Elementary
188,37.5289,-77.099,510261001038,63180,Elementary,2022 - 2023,0,2.9,5.9,1.643678161,0,73,#N/A,7.9,,20.50113895,<10*,13.66742597,2021-2022,George W. Watkins ElementaryNew Kent County Public Schools,George W. Watkins ElementaryNew Kent County Public Schools,63,New Kent County,180,George W. Watkins Elementary
189,37.514624,-76.983608,510261001039,6310,Elementary,2022 - 2023,2.3,4.7,7,2.403846154,0,69,#N/A,12.3,,27.31707317,<10*,17.23577236,2021-2022,New Kent Elementary New Kent County Public Schools,New Kent ElementaryNew Kent County Public Schools,63,New Kent County,10,New Kent Elementary
190,37.5602,-77.9488,510303001398,72231,Elementary,2022 - 2023,6.3,1.6,3.1,1.166666667,0,65,#N/A,10.3,,33.02872063,<10*,10.70496084,2021-2022,Pocahontas ElementaryPowhatan County Public Schools,Pocahontas ElementaryPowhatan County Public Schools,72,Powhatan County,231,Pocahontas Elementary
191,37.5516,-77.9343,510303002105,7213,Elementary,2022 - 2023,18.6,0,9.3,0,0,85,#N/A,7.3,,26.10722611,<10*,7.459207459,2021-2022,Powhatan ElementaryPowhatan County Public Schools,Powhatan ElementaryPowhatan County Public Schools,72,Powhatan County,13,Powhatan Elementary
192,37.519351,-77.798135,510303002789,7221,Elementary,2022 - 2023,6.8,0,3.4,18.51851852,0,76,#N/A,6.8,,28.08320951,<10*,7.875185736,2021-2022,Flat Rock ElementaryPowhatan County Public Schools,Flat Rock ElementaryPowhatan County Public Schools,72,Powhatan County,21,Flat Rock Elementary
193,37.573713,-77.435694,510324000381,123390,Elementary,2022 - 2023,,3.3,3.3,1.223990208,1,52,#N/A,17.8,,71.86440678,<10*,85.76271186,2021-2022,Barack Obama ElementaryRichmond City Public Schools,Barack Obama ElementaryRichmond City Public Schools,123,Richmond City,390,Barack Obama Elementary
194,37.538761,-77.470351,510324001352,123750,Other,2022 - 2023,,0,#N/A,1.043841336,#N/A,#N/A,#N/A,65.6,,91.66666667,<10*,100,2021-2022,Amelia Street Special EducationRichmond City Public Schools,Amelia Street Special EducationRichmond City Public Schools,123,Richmond City,750,Amelia Street Special Education
195,37.530395,-77.413299,510324001359,123830,Elementary,2022 - 2023,,6.3,12.5,1.27064803,1,55,#N/A,22.4,,80.77922078,<10*,83.63636364,2021-2022,Chimborazo ElementaryRichmond City Public Schools,Chimborazo ElementaryRichmond City Public Schools,123,Richmond City,830,Chimborazo Elementary
196,37.549808,-77.40146,510324001365,123710,Elementary,2022 - 2023,,16,20,0.987991266,0,14,#N/A,35.8,,96.41434263,<10*,97.21115538,2021-2022,Fairfield Court ElementaryRichmond City Public Schools,Fairfield Court ElementaryRichmond City Public Schools,123,Richmond City,710,Fairfield Court Elementary
197,37.534676,-77.411142,510324001370,123290,Elementary,2022 - 2023,,5.4,21.6,1.019459459,9,34,#N/A,33.1,,91.70040486,<10*,94.93927126,2021-2022,Henry Marsh III ElementaryRichmond City Public Schools,Henry Marsh III ElementaryRichmond City Public Schools,123,Richmond City,290,Henry Marsh III Elementary
198,37.587556,-77.447185,510324001372,123230,Elementary,2022 - 2023,,3.6,17.9,1.048532731,1,37,#N/A,22.4,,88.62068966,<10*,92.06896552,2021-2022,Ginter Park ElementaryRichmond City Public Schools,Ginter Park ElementaryRichmond City Public Schools,123,Richmond City,230,Ginter Park Elementary
199,37.565102,-77.424665,510324001389,123130,Elementary,2022 - 2023,,3.7,18.5,1.112773303,3,49,#N/A,11,,85.07462687,<10*,90.67164179,2021-2022,Overby-Sheppard ElementaryRichmond City Public Schools,Overby-Sheppard ElementaryRichmond City Public Schools,123,Richmond City,130,Overby-Sheppard Elementary
200,37.554419,-77.468107,510324001406,123200,Elementary,2022 - 2023,,3.4,6.9,2.263586957,0,67,#N/A,15.2,,43.86503067,<10*,43.25153374,2021-2022,William Fox ElementaryRichmond City Public Schools,William Fox ElementaryRichmond City Public Schools,123,Richmond City,200,William Fox Elementary
201,37.545925,-77.401556,510324001407,123650,Elementary,2022 - 2023,,7.4,25.9,0.998931624,1,31,#N/A,42.1,,95.13108614,<10*,95.13108614,2021-2022,Woodville ElementaryRichmond City Public Schools,Woodville ElementaryRichmond City Public Schools,123,Richmond City,650,Woodville Elementary
202,37.531472,-77.421281,510324001860,123100,Elementary,2022 - 2023,,0,13.6,1.175032175,0,59,#N/A,17.6,,68.61702128,<10*,84.57446809,2021-2022,Bellevue ElementaryRichmond City Public Schools,Bellevue ElementaryRichmond City Public Schools,123,Richmond City,100,Bellevue Elementary
203,37.554534,-77.448647,510324001862,123311,Elementary,2022 - 2023,,25,25,1.063474388,4,15,#N/A,42.3,,89.28571429,<10*,92.38095238,2021-2022,George W. Carver ElementaryRichmond City Public Schools,George W. Carver ElementaryRichmond City Public Schools,123,Richmond City,311,George W. Carver Elementary
204,37.585156,-77.461051,510324001927,1233106,Elementary,2022 - 2023,,8.1,8.1,2.624671916,0,70,#N/A,10.5,,32.94392523,<10*,40.65420561,2021-2022,Linwood Holton ElementaryRichmond City Public Schools,Linwood Holton ElementaryRichmond City Public Schools,123,Richmond City,3106,Linwood Holton Elementary
205,37.516263,-77.469814,510324002807,1233119,Other,2022 - 2023,,13.6,13.6,1.168067227,0,62,#N/A,10.5,,43.68932039,<10*,53.07443366,2021-2022,Patrick Henry School Of Science And ArtsRichmond City Public Schools,Patrick Henry School Of Science And ArtsRichmond City Public Schools,123,Richmond City,3119,Patrick Henry School Of Science And Arts
206,37.24543,-77.47564,510084000341,21110,Middle,2022 - 2023,1.5,13.2,14.7,1.536458333,10,#N/A,#N/A,29.7,,45.89595376,<10*,44.16184971,2021-2022,Matoaca MiddleChesterfield County Public Schools,Matoaca MiddleChesterfield County Public Schools,21,Chesterfield County,110,Matoaca Middle
207,37.6859,-77.3839,510183002277,42553,Middle,2022 - 2023,3.5,4.7,5.9,0,0,#N/A,#N/A,7.1,,19.87247609,<10*,10.30818278,2021-2022,Oak Knoll MiddleHanover County Public Schools,Oak Knoll MiddleHanover County Public Schools,42,Hanover County,553,Oak Knoll Middle
208,37.512341,-76.983496,510261001037,63100,Middle,2022 - 2023,3.8,13.2,5.7,2.098360656,0,#N/A,#N/A,17.9,,25.19480519,<10*,18.31168831,2021-2022,New Kent Middle New Kent County Public Schools,NEW KENT MIDDLENew Kent County Public Schools,63,New Kent County,100,New Kent Middle
209,37.548923,-77.462389,510324001356,12350,Middle,2022 - 2023,,15,2.5,1.405864198,8,#N/A,#N/A,14,,65.7079646,<10*,69.91150442,2021-2022,Binford MiddleRichmond City Public Schools,Binford MiddleRichmond City Public Schools,123,Richmond City,50,Binford Middle
210,37.542237,-77.419916,510324001385,123770,Middle,2022 - 2023,,23.9,32.6,1.011037528,43,#N/A,#N/A,27.2,,93.81237525,<10*,92.61477046,2021-2022,Martin Luther King Jr. Middle Richmond City Public Schools,MARTIN LUTHER KING JR. MIDDLERichmond city Public Schools,123,Richmond City,770,Martin Luther King Jr. Middle
211,37.594196,-77.446562,510324002966,1233200,Other,2022 - 2023,,,#N/A,0.88028169,0,#N/A,#N/A,33.3,,51.85185185,<10*,88.88888889,2021-2022,Richmond Career Education and Employment Charter SchoolRichmond City Public Schools,Richmond Career Education and Employment Charter SchoolRichmond City Public Schools,123,Richmond City,3200,Richmond Career Education and Employment Charter School
,37.4027447,-77.75340874,510084003092,2192,Elementary,,6.5,1.6,4.8,3.404761905,0,84,#N/A,10.9,,6.487695749,3.020134228,23.04250559,,Moseley ElementaryChesterfield County,,21,Chesterfield County,92,Moseley Elementary
,37.52571267,-77.17610732,510261003094,63300,Elementary,,2.9,2.9,11.8,1.97826087,0,61,#N/A,12,,27.49490835,<10*,12.21995927,,Quinton ElementaryNew Kent County,,63,New Kent County,300,Quinton Elementary
