FID,LAT,LON,NCESSCH_1,JOIN_NUM,SCH_CAT,YEAR,PER_INEX_T,PER_OOF_T,NUM_MAST,NUM_DOCT,PER_PROV,BLKSTU_CI,NUM_BLKLTS,PER_PROF,PER_ADV,PER_FAIL,PER_BLK_AP,PER_ALL_AP,C_BELOW10,C_ABOVE10,P_BELOW10,P_ABOVE10,PER_DROP,PER_ADVDIP,PER_EC_DIS,PER_ELL,PER_BLK_LA,PER_WH_AS,NUM_BLKSTU,BLKSTU_RR,Year,SCH_DIV,FED_SCHDIV,DIV_NUM,DIV_NAME,SCH_NUM,SCH_NAME
0,37.407,-77.623,5.10084E+11,21632,High,2022 - 2023,4.8,4.2,60,0,11.4,1.726962457,7,0,0,0,24.58678,22.04007,1615,476,77.2,22.8,8.1,48.6,36,4,46,48,641,1.092043682,2021-2022,Manchester HighChesterfield County Public Schools,Manchester HighChesterfield County Public Schools,21,Chesterfield County,632,Manchester High
1,37.44794,-77.64003,5.10084E+11,21740,High,2022 - 2023,4.1,2.4,58,0,5.7,2.207843137,7,0,0,0,11.78707,29.6338,1346,388,77.6,22.4,3.5,62.7,29,3,39,55,452,1.548672566,2021-2022,Clover Hill HighChesterfield County Public Schools,Clover Hill HighChesterfield County Public Schools,21,Chesterfield County,740,Clover Hill High
2,37.3886,-77.4946,5.10084E+11,2110,High,2022 - 2023,6.3,7,58,3,10.5,1.365,20,0,0,0,34.57143,17.21594,1273,676,65.3,34.7,9.3,44.5,47,9,68,28,813,2.4600246,2021-2022,Lloyd C. Bird HighChesterfield County Public Schools,Lloyd C. Bird HighChesterfield County Public Schools,21,Chesterfield County,10,Lloyd C. Bird High
3,37.2773,-77.4673,5.10084E+11,21530,High,2022 - 2023,5.1,6.8,51,2,6.8,1.631707317,10,0,0,0,28.15884,16.9212,1247,315,79.8,20.2,3.6,58.7,37,2,49,45,668,1.497005988,2021-2022,Matoaca HighChesterfield County Public Schools,Matoaca HighChesterfield County Public Schools,21,Chesterfield County,530,Matoaca High
4,37.4357,-77.4836,5.10084E+11,21580,High,2022 - 2023,5.3,10,50,3,15.3,1.418269231,29,0,0,0,50.20747,11.8544,1224,730,62.6,37.4,15.1,32.5,52,20,91,7,846,3.427895981,2021-2022,Meadowbrook HighChesterfield County Public Schools,Meadowbrook HighChesterfield County Public Schools,21,Chesterfield County,580,Meadowbrook High
5,37.3621,-77.4367,5.10084E+11,21610,High,2022 - 2023,5.4,6.5,48,3,7.6,1.588888889,6,0,0,0,28,17.5644,1805,640,73.8,26.2,5.2,53,39,5,56,39,921,0.651465798,2021-2022,Thomas Dale HighChesterfield County Public Schools,Thomas Dale HighChesterfield County Public Schools,21,Chesterfield County,610,Thomas Dale High
6,37.5526,-77.6493,5.10084E+11,21770,High,2022 - 2023,2.4,3.9,58,2,3.9,1.826666667,1,0,0,0,7.714702,35.61431,1407,400,77.9,22.1,5.1,63.5,31,7,36,59,288,0.347222222,2021-2022,James River HighChesterfield County Public Schools,James River HighChesterfield County Public Schools,21,Chesterfield County,770,James River High
7,37.479,-77.6133,5.10084E+11,21280,High,2022 - 2023,0.9,2.7,52,3,7.2,1.47639485,6,0,0,0,14.28571,30.02451,1166,394,74.7,25.3,5.8,59.9,34,4,40,55,380,1.578947368,2021-2022,Monacan HighChesterfield County Public Schools,Monacan HighChesterfield County Public Schools,21,Chesterfield County,280,Monacan High
8,37.496,-77.6603,5.10084E+11,21320,High,2022 - 2023,2.9,1.5,52,3,5.1,2.651376147,,0,0,0,5.698779,36.03912,1685,261,86.6,13.4,2.3,75.2,14,1,17,79,223,0,2021-2022,Midlothian HighChesterfield County Public Schools,Midlothian HighChesterfield County Public Schools,21,Chesterfield County,320,Midlothian High
9,37.4062,-77.7028,5.10084E+11,21840,High,2022 - 2023,0.7,0.7,63,3,1.3,1.657894737,1,0,0,0,12.76006,30.20528,2033,253,88.9,11.1,0.9,75.2,14,1,24,72,362,0.276243094,2021-2022,Cosby HighChesterfield County Public Schools,Cosby HighChesterfield County Public Schools,21,Chesterfield County,840,Cosby High
10,37.7004,-77.8971,5.10165E+11,37220,High,2022 - 2023,0,3.8,59,2,7.6,1.924657534,1,0,0,0,6.451613,24.38202,809,79,91.1,8.9,2.2,76.6,28,1,22,72,130,0.769230769,2021-2022,Goochland HighGoochland County Public Schools,Goochland HighGoochland County Public Schools,37,Goochland County,220,Goochland High
11,37.6648,-77.4104,5.10183E+11,4262,High,2022 - 2023,5.5,1.8,71,2,4.5,2.166666667,2,0,0,0,4.697987,29.29227,1401,111,92.7,7.3,0.3,75.3,20,1,12,83,110,1.818181818,2021-2022,Atlee HighHanover County Public Schools,Atlee HighHanover County Public Schools,42,Hanover County,62,Atlee High
12,37.6127,-77.3404,5.10183E+11,42370,High,2022 - 2023,3.8,0,68,3,8.6,2.340659341,2,0,0,0,3.191489,20.82718,1169,165,87.6,12.4,1.7,56.8,36,2,15,79,123,1.62601626,2021-2022,Mechanicsville HighHanover County Public Schools,Mechanicsville HighHanover County Public Schools,42,Hanover County,370,Mechanicsville High
13,37.786,-77.5341,5.10183E+11,42400,High,2022 - 2023,2.8,0.9,65,2,8.3,1.4609375,3,0,0,0,6.769231,24.56538,1147,158,87.9,12.1,7.3,58.4,39,3,26,70,169,1.775147929,2021-2022,Patrick Henry HighHanover County Public Schools,Patrick Henry HighHanover County Public Schools,42,Hanover County,400,Patrick Henry High
14,37.6886,-77.3852,5.10183E+11,42554,High,2022 - 2023,5.4,3.6,57,2,9,2.039473684,1,0,0,0,5.681818,24.66713,1259,126,90.9,9.1,3.2,69.8,21,1,12,83,108,0.925925926,2021-2022,Hanover HighHanover County Public Schools,Hanover HighHanover County Public Schools,42,Hanover County,554,Hanover High
15,37.6016,-77.5584,5.10189E+11,43410,High,2022 - 2023,1.7,4.3,72,0,5.1,3.545454545,,0,0,0,6.349206,37.25806,1518,294,83.8,16.2,5.3,62.1,36,11,32,62,266,0,2021-2022,Douglas S. Freeman HighHenrico County Public Schools,Douglas S. Freeman HighHenrico County Public Schools,43,Henrico County,410,Douglas S. Freeman High
16,37.6037,-77.4317,5.10189E+11,43610,High,2022 - 2023,1.8,5.5,55,3,19.3,1.292329957,,0,0,0,48.62843,29.74777,948,371,71.9,28.1,6.6,52.5,53,2,75,22,931,0,2021-2022,Henrico HighHenrico County Public Schools,Henrico HighHenrico County Public Schools,43,Henrico County,610,Henrico High
17,37.6333,-77.5172,5.10189E+11,43670,High,2022 - 2023,1.8,7,50,2,9.6,1.602941176,,0,0,0,36.52393,23.12172,1309,374,77.8,22.2,9.9,32,51,13,63,31,701,0,2021-2022,Hermitage HighHenrico County Public Schools,Hermitage HighHenrico County Public Schools,43,Henrico County,670,Hermitage High
18,37.536957,-77.324,5.10189E+11,43190,High,2022 - 2023,4.7,10.2,56,2,19.5,1.078507079,,0,0,0,74.11546,25.70608,1233,798,60.7,39.3,8.3,36,59,4,86,10,1624,0,2021-2022,Highland Springs HighHenrico County Public Schools,Highland Springs HighHenrico County Public Schools,43,Henrico County,190,Highland Springs High
19,37.6303,-77.5471,5.10189E+11,43600,High,2022 - 2023,1.6,4.9,62,2,9.8,1.706666667,,0,0,0,16.57941,29.90605,1463,413,78,22,17.3,40.1,52,17,50,44,432,0,2021-2022,John Randolph Tucker HighHenrico County Public Schools,John Randolph Tucker HighHenrico County Public Schools,43,Henrico County,600,John Randolph Tucker High
20,37.4719,-77.3784,5.10189E+11,43580,High,2022 - 2023,1.9,9.6,52,1,21.2,1.167119565,,0,0,0,69.0367,31.03203,942,410,69.7,30.3,6.8,41.5,53,2,79,16,1034,0,2021-2022,Varina HighHenrico County Public Schools,Varina HighHenrico County Public Schools,43,Henrico County,580,Varina High
21,37.6201,-77.6052,5.10189E+11,43140,High,2022 - 2023,2.8,1.9,59,1,3.7,4.642105263,,0,0,0,2.177294,36.26622,1533,207,88.1,11.9,3.5,70.7,22,4,18,76,169,0,2021-2022,Mills E. Godwin HighHenrico County Public Schools,Mills E. Godwin HighHenrico County Public Schools,43,Henrico County,140,Mills E. Godwin High
22,37.675,-77.5988,5.10189E+11,43160,High,2022 - 2023,4.3,1.7,56,2,9.5,3.891566265,,0,0,0,5.39629,58.51011,1785,125,93.5,6.5,0.8,78,11,2,15,80,168,0,2021-2022,Deep Run HighHenrico County Public Schools,Deep Run HighHenrico County Public Schools,43,Henrico County,160,Deep Run High
23,37.666,-77.5342,5.10189E+11,4396,High,2022 - 2023,1.6,4,53,1,10.5,1.30952381,,0,0,0,10.36662,39.4317,1701,257,86.9,13.1,3.1,73.6,24,3,25,68,337,0,2021-2022,Glen Allen HighHenrico County Public Schools,Glen Allen HighHenrico County Public Schools,43,Henrico County,96,Glen Allen High
24,37.571387,-77.486325,5.10324E+11,12320,High,2022 - 2023,0,9.7,62,1,16.7,1.410015649,18,0,0,0,66.66667,0.3663,649,165,79.7,20.3,5.1,52.1,62,2,73,23,523,3.4416826,2021-2022,Thomas Jefferson HighRichmond City Public Schools,Thomas Jefferson HighRichmond City Public Schools,123,Richmond City,20,Thomas Jefferson High
25,37.594196,-77.446562,5.10324E+11,123730,High,2022 - 2023,0,9.3,53,0,9.3,1.2,13,0,0,0,87.01299,25.66667,428,141,75.2,24.8,6.6,39.7,72,2,84,13,477,2.725366876,2021-2022,John Marshall HighRichmond City Public Schools,John Marshall HighRichmond City Public Schools,123,Richmond City,730,John Marshall High
26,37.531707,-77.540948,5.10324E+11,1231510,High,2022 - 2023,0,9.7,52,3,13.6,1.397003745,27,0,0,0,51.21951,7.925258,1057,412,72,28,19.2,39.2,63,24,91,7,829,3.256936068,2021-2022,Huguenot HighRichmond City Public Schools,Huguenot HighRichmond City Public Schools,123,Richmond City,1510,Huguenot High
27,37.528697,-77.403739,5.10324E+11,123621,Other,2022 - 2023,0,15.4,51,5,12.8,0,1,0,0,0,80,18.77133,262,29,90,10,2.9,85.7,62,4,85,12,177,0.564971751,2021-2022,Franklin Military AcademyRichmond City Public Schools,Franklin Military AcademyRichmond City Public Schools,123,Richmond City,621,Franklin Military Academy
28,37.510054,-76.981097,5.10261E+11,6320,High,2022 - 2023,1.4,14.5,58,1,4.3,1.25,,0,0,0,6.849315,6.512043,898,211,81,19,0,0,22,1,18,75,126,0,2021-2022,New Kent High New Kent County Public Schools,New Kent HighNew Kent County Public Schools,63,New Kent County,20,New Kent High
29,37.552558,-77.403762,5.10324E+11,123850,High,2022 - 2023,0,11.6,51,5,17.4,1.053215078,26,0,0,0,92.05298,20.21419,413,308,57.3,42.7,0,0,85,2,94,3,674,3.857566766,2021-2022,Armstrong High Richmond City Public Schools,ARMSTRONG HIGHHenrico County Public Schools,123,Richmond City,850,Armstrong High
30,37.510274,-77.483075,5.10324E+11,123741,High,2022 - 2023,0,0,48,5,20,0,,0,0,0,58.51852,10.31322,765,493,60.8,39.2,0,0,60,38,96,3,546,0,2021-2022,George Wythe HighRichmond City Public Schools,George Wythe HighRichmond City Public Schools,123,Richmond City,741,George Wythe High
31,37.4918,-77.5457,5.10084E+11,21620,Elementary,2022 - 2023,9,3,61,1,16.4,1.745819398,,53,4,43,0,0,552,131,80.8,19.2,0,0,57,24,70,24,221,0,2021-2022,A.M. Davis ElementaryChesterfield County Public Schools,A.M. Davis ElementaryChesterfield County Public Schools,21,Chesterfield County,620,A.M. Davis Elementary
32,37.3915,-77.4413,5.10084E+11,21660,Elementary,2022 - 2023,2.1,6.3,54,0,6.3,0,,34,4,61,0,0,345,122,73.9,26.1,0,0,69,41,78,18,121,0,2021-2022,Bellwood ElementaryChesterfield County Public Schools,Bellwood ElementaryChesterfield County Public Schools,21,Chesterfield County,660,Bellwood Elementary
33,37.436,-77.4515,5.10084E+11,21430,Elementary,2022 - 2023,6.2,6.2,51,0,10.8,1.401960784,,28,0,72,0,0,392,187,67.7,32.3,0,0,64,55,93,5,119,0,2021-2022,Bensley ElementaryChesterfield County Public Schools,Bensley ElementaryChesterfield County Public Schools,21,Chesterfield County,430,Bensley Elementary
34,37.41105,-77.489791,5.10084E+11,21130,Elementary,2022 - 2023,8,13.3,46,1,10.7,1.574074074,,49,1,50,0,0,809,181,81.7,18.3,0,0,54,20,78,17,427,0,2021-2022,Beulah ElementaryChesterfield County Public Schools,Beulah ElementaryChesterfield County Public Schools,21,Chesterfield County,130,Beulah Elementary
35,37.528083,-77.562693,5.10084E+11,2120,Elementary,2022 - 2023,4.3,4.3,57,2,4.3,0,,45,17,39,0,0,497,58,89.5,10.5,0,0,41,16,33,61,40,0,2021-2022,Bon Air ElementaryChesterfield County Public Schools,Bon Air ElementaryChesterfield County Public Schools,21,Chesterfield County,20,Bon Air Elementary
36,37.3363,-77.4399,5.10084E+11,2150,Elementary,2022 - 2023,0,2.3,61,0,4.5,1.184895833,,60,5,35,0,0,461,58,89.5,10.5,0,0,49,5,53,38,226,0,2021-2022,C.C. Wells ElementaryChesterfield County Public Schools,C.C. Wells ElementaryChesterfield County Public Schools,21,Chesterfield County,50,C.C. Wells Elementary
37,37.361217,-77.433949,5.10084E+11,21492,Elementary,2022 - 2023,15.9,3.2,54,2,7.9,1.272373541,,57,5,38,0,0,592,146,80.2,19.8,0,0,53,17,53,39,187,0,2021-2022,C.E. Curtis ElementaryChesterfield County Public Schools,C.E. Curtis ElementaryChesterfield County Public Schools,21,Chesterfield County,492,C.E. Curtis Elementary
38,37.5263,-77.5371,5.10084E+11,21560,Elementary,2022 - 2023,3.6,1.8,67,2,3.6,3.773584906,,45,12,44,0,0,447,113,79.8,20.2,0,0,44,22,52,41,123,0,2021-2022,Crestwood ElementaryChesterfield County Public Schools,Crestwood ElementaryChesterfield County Public Schools,21,Chesterfield County,560,Crestwood Elementary
39,37.3294,-77.3243,5.10084E+11,21390,Elementary,2022 - 2023,13.6,3.4,44,0,0,1.484429066,,48,9,43,0,0,658,129,82.6,16.4,0,0,43,11,50,44,226,0,2021-2022,Enon ElementaryChesterfield County Public Schools,Enon ElementaryChesterfield County Public Schools,21,Chesterfield County,390,Enon Elementary
40,37.2376,-77.4274,5.10084E+11,21350,Elementary,2022 - 2023,6,0,60,4,4,0,,58,5,37,0,0,392,75,83.9,16.1,0,0,73,2,75,20,332,0,2021-2022,Ettrick ElementaryChesterfield County Public Schools,Ettrick ElementaryChesterfield County Public Schools,21,Chesterfield County,350,Ettrick Elementary
41,37.4559,-77.4703,5.10084E+11,21590,Elementary,2022 - 2023,9.3,10.7,58,0,10.7,1.901098901,,38,0,62,0,0,588,193,75.3,24.7,0,0,66,40,90,8,304,0,2021-2022,Falling Creek ElementaryChesterfield County Public Schools,Falling Creek ElementaryChesterfield County Public Schools,21,Chesterfield County,590,Falling Creek Elementary
42,37.3887,-77.7662,5.10084E+11,21180,Elementary,2022 - 2023,1.9,1.9,57,2,7.4,2.319444444,,63,14,23,0,0,673,71,90.5,9.5,0,0,14,3,14,81,54,0,2021-2022,Grange Hall ElementaryChesterfield County Public Schools,Grange Hall ElementaryChesterfield County Public Schools,21,Chesterfield County,180,Grange Hall Elementary
43,37.5188,-77.5918,5.10084E+11,2170,Elementary,2022 - 2023,0,0,68,0,2.4,1.1171875,,56,24,20,0,0,423,41,91.2,8.8,0,0,32,7,25,64,59,0,2021-2022,Greenfield ElementaryChesterfield County Public Schools,Greenfield ElementaryChesterfield County Public Schools,21,Chesterfield County,70,Greenfield Elementary
44,37.301537,-77.433504,5.10084E+11,21460,Elementary,2022 - 2023,2.4,7.3,49,0,4.9,1.626953125,,56,4,40,0,0,349,92,79.1,20.9,0,0,64,5,66,28,228,0,2021-2022,Harrowgate ElementaryChesterfield County Public Schools,Harrowgate ElementaryChesterfield County Public Schools,21,Chesterfield County,460,Harrowgate Elementary
45,37.4357,-77.4745,5.10084E+11,2160,Elementary,2022 - 2023,4.2,1.4,52,3,5.6,2.557544757,,44,3,52,0,0,636,92,87.4,12.6,0,0,60,30,85,10,302,0,2021-2022,Hopkins Road ElementaryChesterfield County Public Schools,Hopkins Road ElementaryChesterfield County Public Schools,21,Chesterfield County,60,Hopkins Road Elementary
46,37.46529,-77.518621,5.10084E+11,21550,Elementary,2022 - 2023,6.5,5.2,57,0,7.8,1.527777778,,38,0,63,0,0,534,257,67.5,32.5,0,0,71,25,90,7,424,0,2021-2022,J.A. Chalkley ElementaryChesterfield County Public Schools,J.A. Chalkley ElementaryChesterfield County Public Schools,21,Chesterfield County,550,J.A. Chalkley Elementary
47,37.495655,-77.652984,5.10084E+11,21650,Elementary,2022 - 2023,0,3.3,54,2,0,0,,63,28,8,0,0,733,70,91.3,8.7,0,0,15,3,14,79,71,0,2021-2022,J.B. Watkins ElementaryChesterfield County Public Schools,J.B. Watkins ElementaryChesterfield County Public Schools,21,Chesterfield County,650,J.B. Watkins Elementary
48,37.4469,-77.4899,5.10084E+11,21500,Elementary,2022 - 2023,13.2,18.4,45,0,10.5,1.144396552,,37,5,58,0,0,600,167,78.2,21.8,0,0,55,22,85,9,380,0,2021-2022,J.G. Hening ElementaryChesterfield County Public Schools,J.G. Hening ElementaryChesterfield County Public Schools,21,Chesterfield County,500,J.G. Hening Elementary
49,37.2303,-77.4827,5.10084E+11,21370,Elementary,2022 - 2023,0,4.3,51,0,12.8,1.474926254,,65,8,28,0,0,464,132,77.9,22.1,0,0,48,2,42,51,210,0,2021-2022,Matoaca ElementaryChesterfield County Public Schools,Matoaca ElementaryChesterfield County Public Schools,21,Chesterfield County,370,Matoaca Elementary
50,37.4872,-77.5865,5.10084E+11,21700,Elementary,2022 - 2023,3.4,5.2,58,0,6.9,1.727626459,,37,12,51,0,0,397,122,76.5,23.5,0,0,52,13,51,43,145,0,2021-2022,Reams Road ElementaryChesterfield County Public Schools,Reams Road ElementaryChesterfield County Public Schools,21,Chesterfield County,700,Reams Road Elementary
51,37.5316,-77.6135,5.10084E+11,21730,Elementary,2022 - 2023,7.7,1.9,57,0,7.7,2.597402597,,65,13,21,0,0,596,56,91.4,8.6,0,0,20,4,18,75,51,0,2021-2022,Robious ElementaryChesterfield County Public Schools,Robious ElementaryChesterfield County Public Schools,21,Chesterfield County,730,Robious Elementary
52,37.3853,-77.4848,5.10084E+11,21720,Elementary,2022 - 2023,4.4,4.4,66,0,4.4,0.966183575,,58,1,41,0,0,369,113,76.6,23.4,0,0,62,24,59,33,100,0,2021-2022,Salem Church ElementaryChesterfield County Public Schools,Salem Church ElementaryChesterfield County Public Schools,21,Chesterfield County,720,Salem Church Elementary
53,37.3957,-77.6424,5.10084E+11,21861,Elementary,2022 - 2023,0,2.1,49,0,4.3,5.747126437,,57,26,16,0,0,537,65,89.2,10.8,0,0,34,4,31,60,109,0,2021-2022,Alberta Smith ElementaryChesterfield County Public Schools,Alberta Smith ElementaryChesterfield County Public Schools,21,Chesterfield County,861,Alberta Smith Elementary
54,37.3212,-77.3905,5.10084E+11,21780,Elementary,2022 - 2023,3.6,1.8,56,0,9.1,1.600886918,,42,5,53,0,0,412,179,69.7,30.3,0,0,60,8,63,30,267,0,2021-2022,Marguerite F. Christian ElementaryChesterfield County Public Schools,Marguerite F. Christian ElementaryChesterfield County Public Schools,21,Chesterfield County,780,Marguerite F. Christian Elementary
55,37.4777,-77.6161,5.10084E+11,21290,Elementary,2022 - 2023,2.3,2.3,73,0,0,5.479452055,,57,19,23,0,0,541,35,93.9,6.1,0,0,15,3,15,79,42,0,2021-2022,W.W. Gordon ElementaryChesterfield County Public Schools,W.W. Gordon ElementaryChesterfield County Public Schools,21,Chesterfield County,290,W.W. Gordon Elementary
56,37.3826,-77.652,5.10084E+11,21800,Elementary,2022 - 2023,3.1,3.1,48,0,3.1,0.786163522,,74,15,11,0,0,779,86,90.1,9.9,0,0,22,4,26,65,139,0,2021-2022,Spring Run ElementaryChesterfield County Public Schools,Spring Run ElementaryChesterfield County Public Schools,21,Chesterfield County,800,Spring Run Elementary
57,37.3885,-77.5025,5.10084E+11,21360,Elementary,2022 - 2023,6.3,4.8,51,2,11.1,4,,63,9,28,0,0,478,92,83.9,16.1,0,0,36,8,40,54,141,0,2021-2022,O.B. Gates ElementaryChesterfield County Public Schools,O.B. Gates ElementaryChesterfield County Public Schools,21,Chesterfield County,360,O.B. Gates Elementary
58,37.4515,-77.6592,5.10084E+11,21340,Elementary,2022 - 2023,0,2.2,54,2,4.3,1.018348624,,70,14,16,0,0,593,125,82.6,17.4,0,0,26,6,19,74,77,0,2021-2022,Swift Creek ElementaryChesterfield County Public Schools,Swift Creek ElementaryChesterfield County Public Schools,21,Chesterfield County,340,Swift Creek Elementary
59,37.4203,-77.6737,5.10084E+11,21150,Elementary,2022 - 2023,1.7,0,48,0,6.7,1.050314465,,66,16,18,0,0,695,154,81.9,18.1,0,0,31,5,27,64,134,0,2021-2022,Clover Hill ElementaryChesterfield County Public Schools,Clover Hill ElementaryChesterfield County Public Schools,21,Chesterfield County,150,Clover Hill Elementary
60,37.4581,-77.602,5.10084E+11,21380,Elementary,2022 - 2023,3.4,1.7,65,0,6.9,1.722772277,,60,6,34,0,0,473,123,79.4,20.6,0,0,51,9,50,44,194,0,2021-2022,Providence ElementaryChesterfield County Public Schools,Providence ElementaryChesterfield County Public Schools,21,Chesterfield County,380,Providence Elementary
61,37.4632,-77.6316,5.10084E+11,21300,Elementary,2022 - 2023,2.9,4.3,55,0,4.3,0,,63,9,28,0,0,647,160,80.2,19.8,0,0,30,8,25,66,107,0,2021-2022,Evergreen ElementaryChesterfield County Public Schools,Evergreen ElementaryChesterfield County Public Schools,21,Chesterfield County,300,Evergreen Elementary
62,37.4353,-77.5535,5.10084E+11,21400,Elementary,2022 - 2023,5,1.7,60,0,3.3,1.620209059,,54,6,40,0,0,544,155,77.8,22.2,0,0,45,10,56,36,206,0,2021-2022,Jacobs Road ElementaryChesterfield County Public Schools,Jacobs Road ElementaryChesterfield County Public Schools,21,Chesterfield County,400,Jacobs Road Elementary
63,37.4166,-77.6101,5.10084E+11,21410,Elementary,2022 - 2023,5.3,3.5,58,0,8.8,1.630434783,,62,6,32,0,0,509,130,79.7,20.3,0,0,46,12,47,47,150,0,2021-2022,Thelma Crenshaw ElementaryChesterfield County Public Schools,Thelma Crenshaw ElementaryChesterfield County Public Schools,21,Chesterfield County,410,Thelma Crenshaw Elementary
64,37.4267,-77.6899,5.10084E+11,21440,Elementary,2022 - 2023,1.8,0,59,0,3.6,1.588888889,,69,13,19,0,0,737,66,91.8,8.2,0,0,8,2,14,79,72,0,2021-2022,Woolridge ElementaryChesterfield County Public Schools,Woolridge ElementaryChesterfield County Public Schools,21,Chesterfield County,440,Woolridge Elementary
65,37.3605,-77.4619,5.10084E+11,21480,Elementary,2022 - 2023,8.3,3.3,58,2,3.3,1.554404145,,66,7,26,0,0,565,159,78,22,0,0,50,7,52,40,282,0,2021-2022,Ecoff ElementaryChesterfield County Public Schools,Ecoff ElementaryChesterfield County Public Schools,21,Chesterfield County,480,Ecoff Elementary
66,37.339704,-77.340016,5.10084E+11,21850,Elementary,2022 - 2023,4.2,14.1,48,0,11.3,1.656716418,,62,15,23,0,0,664,113,85.5,14.5,0,0,52,29,65,31,157,0,2021-2022,Elizabeth Scott ElementaryChesterfield County Public Schools,Elizabeth Scott ElementaryChesterfield County Public Schools,21,Chesterfield County,850,Elizabeth Scott Elementary
67,37.379531,-77.712037,5.10084E+11,21860,Elementary,2022 - 2023,3.7,0,63,0,3.7,0,,66,15,19,0,0,698,60,92.1,7.9,0,0,14,3,20,72,92,0,2021-2022,Winterpock ElementaryChesterfield County Public Schools,Winterpock ElementaryChesterfield County Public Schools,21,Chesterfield County,860,Winterpock Elementary
68,37.48093,-77.696195,5.10084E+11,2190,Elementary,2022 - 2023,0,0,59,0,7.4,3.539823009,,70,14,16,0,0,878,98,90,10,0,0,12,1,18,76,113,0,2021-2022,Old Hundred ElementaryChesterfield County Public Schools,Old Hundred ElementaryChesterfield County Public Schools,21,Chesterfield County,90,Old Hundred Elementary
69,37.6853,-77.7954,5.10165E+11,37260,Elementary,2022 - 2023,2.1,2.1,54,0,2.1,0,,61,22,17,0,0,399,52,88.5,11.5,0,0,25,4,23,72,50,0,2021-2022,Randolph ElementaryGoochland County Public Schools,Randolph ElementaryGoochland County Public Schools,37,Goochland County,260,Randolph Elementary
70,37.7147,-77.5073,5.10183E+11,42430,Elementary,2022 - 2023,5.1,0,67,0,5.1,2.358490566,,58,5,38,0,0,318,34,90.3,9.7,0,0,51,13,35,60,42,0,2021-2022,Elmont ElementaryHanover County Public Schools,Elmont ElementaryHanover County Public Schools,42,Hanover County,430,Elmont Elementary
71,37.756,-77.4864,5.10183E+11,42150,Elementary,2022 - 2023,2.4,0,67,0,2.4,1.617647059,,0,0,0,0,0,260,27,90.6,9.4,0,0,58,11,44,48,86,0,2021-2022,Henry Clay ElementaryHanover County Public Schools,Henry Clay ElementaryHanover County Public Schools,42,Hanover County,150,Henry Clay Elementary
72,37.770118,-77.474094,5.10183E+11,42162,Elementary,2022 - 2023,0,2.5,83,0,2.5,2.148387097,,45,9,46,0,0,293,30,90.7,9.3,0,0,54,11,36,56,50,0,2021-2022,John M. Gandy ElementaryHanover County Public Schools,John M. Gandy ElementaryHanover County Public Schools,42,Hanover County,162,John M. Gandy Elementary
73,37.611,-77.3792,5.10183E+11,42420,Elementary,2022 - 2023,1.6,0,67,0,1.6,2.587912088,,60,14,26,0,0,486,71,87.3,12.7,0,0,60,5,26,64,112,0,2021-2022,Mechanicsville ElementaryHanover County Public Schools,Mechanicsville ElementaryHanover County Public Schools,42,Hanover County,420,Mechanicsville Elementary
74,37.6651,-77.3396,5.10183E+11,4230,Elementary,2022 - 2023,4.3,0,59,0,6.4,0,,65,17,18,0,0,547,54,91,9,0,0,14,2,7,86,21,0,2021-2022,Rural Point ElementaryHanover County Public Schools,Rural Point ElementaryHanover County Public Schools,42,Hanover County,30,Rural Point Elementary
75,37.6456,-77.3843,5.10183E+11,42290,Elementary,2022 - 2023,8.6,0,66,0,5.7,3.012048193,,63,11,27,0,0,338,26,92.9,7.1,0,0,28,3,13,80,32,0,2021-2022,Washington-Henry ElementaryHanover County Public SchoolsHanover County Public Schools,Washington-Henry ElementaryHanover County Public Schools,42,Hanover County,290,Washington-Henry ElementaryHanover County Public Schools
76,37.6699,-77.4116,5.10183E+11,42551,Elementary,2022 - 2023,3.3,3.3,66,0,5,4.561643836,,68,16,16,0,0,735,54,93.2,6.8,0,0,11,3,12,81,57,0,2021-2022,Cool Spring ElementaryHanover County Public Schools,Cool Spring ElementaryHanover County Public Schools,42,Hanover County,551,Cool Spring Elementary
77,37.5932,-77.32,5.10183E+11,4270,Elementary,2022 - 2023,0,0,76,0,0,2.631578947,,62,2,36,0,0,446,53,89.4,10.6,0,0,41,3,15,79,40,0,2021-2022,Cold Harbor ElementaryHanover County Public Schools,Cold Harbor ElementaryHanover County Public Schools,42,Hanover County,70,Cold Harbor Elementary
78,37.7617,-77.6599,5.10183E+11,4240,Elementary,2022 - 2023,2.5,0,63,0,2.5,5.203125,,73,5,22,0,0,424,28,93.8,6.2,0,0,28,3,15,80,29,0,2021-2022,South Anna ElementaryHanover County Public Schools,South Anna ElementaryHanover County Public Schools,42,Hanover County,40,South Anna Elementary
79,37.6398,-77.3091,5.10183E+11,42552,Elementary,2022 - 2023,4,0,62,0,0,5.194805195,,68,13,19,0,0,516,22,95.9,4.1,0,0,22,2,14,75,41,0,2021-2022,Pole Green ElementaryHanover County Public Schools,Pole Green ElementaryHanover County Public Schools,42,Hanover County,552,Pole Green Elementary
80,37.62778,-77.337305,5.10183E+11,42210,Elementary,2022 - 2023,2,0,68,0,2,2.631578947,,60,16,25,0,0,502,40,92.6,7.4,0,0,37,4,18,76,54,0,2021-2022,Laurel Meadow ElementaryHanover County Public Schools,Laurel Meadow ElementaryHanover County Public Schools,42,Hanover County,210,Laurel Meadow Elementary
81,37.6951,-77.6141,5.10189E+11,43710,Elementary,2022 - 2023,2.6,0,63,0,2.6,0,,72,19,8,0,0,570,23,96.1,3.9,0,0,8,6,10,83,32,0,2021-2022,Shady Grove ElementaryHenrico County Public Schools,Shady Grove ElementaryHenrico County Public Schools,43,Henrico County,710,Shady Grove Elementary
82,37.6033,-77.505,5.10189E+11,43530,Elementary,2022 - 2023,9.1,0,59,0,9.1,1.661129568,,31,2,67,0,0,343,58,85.5,14.5,0,0,62,36,73,21,118,0,2021-2022,Charles M. Johnson ElementaryHenrico County Public Schools,Charles M. Johnson ElementaryHenrico County Public Schools,43,Henrico County,530,Charles M. Johnson Elementary
83,37.6319,-77.4423,5.10189E+11,43590,Elementary,2022 - 2023,0,0,46,0,7.74,1.20979021,,45,14,41,0,0,246,40,86,14,0,0,56,11,74,18,182,0,2021-2022,Chamberlayne ElementaryHenrico County Public Schools,Chamberlayne ElementaryHenrico County Public Schools,43,Henrico County,590,Chamberlayne Elementary
84,37.6002,-77.5204,5.10189E+11,43400,Elementary,2022 - 2023,0,0,52,0,0,2.941176471,,72,7,21,0,0,289,36,88.9,11.1,0,0,42,16,35,57,30,0,2021-2022,Crestview ElementaryHenrico County Public Schools,Crestview ElementaryHenrico County Public Schools,43,Henrico County,400,Crestview Elementary
85,37.5382,-77.293,5.10189E+11,43120,Elementary,2022 - 2023,2.5,0,74,0,10,1.151631478,,44,0,56,0,0,344,121,74,26,0,0,67,17,78,15,268,0,2021-2022,Cashell Donahoe ElementaryHenrico County Public Schools,Cashell Donahoe ElementaryHenrico County Public Schools,43,Henrico County,120,Cashell Donahoe Elementary
86,37.639,-77.5186,5.10189E+11,43700,Elementary,2022 - 2023,2.5,2.5,37,2,7.5,1.309608541,,39,4,57,0,0,509,93,84.6,15.4,0,0,61,42,67,28,168,0,2021-2022,Dumbarton ElementaryHenrico County Public Schools,Dumbarton ElementaryHenrico County Public Schools,43,Henrico County,700,Dumbarton Elementary
87,37.6195,-77.4901,5.10189E+11,43680,Elementary,2022 - 2023,3.6,0,64,0,5.5,0.976109215,,56,2,42,0,0,521,77,87.1,12.9,0,0,70,26,69,27,233,0,2021-2022,Elizabeth Holladay ElementaryHenrico County Public Schools,Elizabeth Holladay ElementaryHenrico County Public Schools,43,Henrico County,680,Elizabeth Holladay Elementary
88,37.6785,-77.5234,5.10189E+11,4320,Elementary,2022 - 2023,0,0,71,0,5.1,3.221238938,,60,20,19,0,0,531,46,92,8,0,0,23,7,16,77,66,0,2021-2022,Glen Allen ElementaryHenrico County Public Schools,Glen Allen ElementaryHenrico County Public Schools,43,Henrico County,20,Glen Allen Elementary
89,37.5801,-77.4011,5.10189E+11,43380,Elementary,2022 - 2023,0,24.3,42,0,16.2,1.084895259,,44,3,53,0,0,270,118,69.6,30.4,0,0,89,3,94,4,392,0,2021-2022,Glen Lea ElementaryHenrico County Public Schools,Glen Lea ElementaryHenrico County Public Schools,43,Henrico County,380,Glen Lea Elementary
90,37.6236,-77.5596,5.10189E+11,43620,Elementary,2022 - 2023,0,0,68,0,0,3.8647343,,68,14,18,0,0,452,49,90.2,9.8,0,0,42,16,31,64,107,0,2021-2022,Jackson Davis ElementaryHenrico County Public Schools,Jackson Davis ElementaryHenrico County Public Schools,43,Henrico County,620,Jackson Davis Elementary
91,37.5363,-77.366,5.10189E+11,43660,Elementary,2022 - 2023,3.3,3.3,65,0,10,1.105006105,,47,4,48,0,0,330,95,77.6,22.4,0,0,75,7,92,5,380,0,2021-2022,Jacob L. Adams ElementaryHenrico County Public Schools,Jacob L. Adams ElementaryHenrico County Public Schools,43,Henrico County,660,Jacob L. Adams Elementary
92,37.5967,-77.4285,5.10189E+11,43430,Elementary,2022 - 2023,8.6,2.9,59,0,20,1.080143541,,23,0,77,0,0,331,89,78.8,21.2,0,0,85,7,91,7,381,0,2021-2022,Laburnum ElementaryHenrico County Public Schools,Laburnum ElementaryHenrico County Public Schools,43,Henrico County,430,Laburnum Elementary
93,37.6135,-77.4787,5.10189E+11,43370,Elementary,2022 - 2023,0,0,69,0,0,1.55952381,,44,10,47,0,0,379,54,87.5,12.5,0,0,56,15,57,38,147,0,2021-2022,Lakeside ElementaryHenrico County Public Schools,Lakeside ElementaryHenrico County Public Schools,43,Henrico County,370,Lakeside Elementary
94,37.6548,-77.4641,5.10189E+11,4350,Elementary,2022 - 2023,2.6,2.6,61,0,0,1.672690763,,39,6,54,0,0,332,98,77.2,22.8,0,0,68,12,66,29,236,0,2021-2022,Longdale ElementaryHenrico County Public Schools,Longdale ElementaryHenrico County Public Schools,43,Henrico County,50,Longdale Elementary
95,37.5938,-77.5824,5.10189E+11,43540,Elementary,2022 - 2023,0,2.9,62,3,0,4.081632653,,46,25,29,0,0,568,75,88.3,11.7,0,0,43,15,38,56,160,0,2021-2022,Maybeury ElementaryHenrico County Public Schools,Maybeury ElementaryHenrico County Public Schools,43,Henrico County,540,Maybeury Elementary
96,37.5195,-77.376,5.10189E+11,43210,Elementary,2022 - 2023,0,0,55,3,14.3,0.894101877,,38,6,56,0,0,243,39,86.2,13.8,0,0,76,3,83,10,232,0,2021-2022,Montrose ElementaryHenrico County Public Schools,Montrose ElementaryHenrico County Public Schools,43,Henrico County,210,Montrose Elementary
97,37.6083,-77.5794,5.10189E+11,43440,Elementary,2022 - 2023,0,0,61,4,0,1.637254902,,46,37,18,0,0,332,20,94.3,5.7,0,0,23,5,17,76,36,0,2021-2022,Pemberton ElementaryHenrico County Public Schools,Pemberton ElementaryHenrico County Public Schools,43,Henrico County,440,Pemberton Elementary
98,37.6024,-77.59,5.10189E+11,43570,Elementary,2022 - 2023,0,3.2,64,0,0,0,,53,16,31,0,0,467,53,89.8,10.2,0,0,47,20,34,62,63,0,2021-2022,Pinchbeck ElementaryHenrico County Public Schools,Pinchbeck ElementaryHenrico County Public Schools,43,Henrico County,570,Pinchbeck Elementary
99,37.6409,-77.5465,5.10189E+11,43630,Elementary,2022 - 2023,3.1,6.3,65,0,3.1,2.352941176,,55,6,40,0,0,389,62,86.3,13.7,0,0,59,26,47,47,117,0,2021-2022,R.C. Longan ElementaryHenrico County Public Schools,R.C. Longan ElementaryHenrico County Public Schools,43,Henrico County,630,R.C. Longan Elementary
100,37.5677,-77.3892,5.10189E+11,43420,Elementary,2022 - 2023,6.1,12.1,58,0,12.1,1.063063063,,35,1,63,0,0,289,107,73,27,0,0,76,4,93,4,380,0,2021-2022,Harold Macon Ratcliffe ElementaryHenrico County Public Schools,Harold Macon Ratcliffe ElementaryHenrico County Public Schools,43,Henrico County,420,Harold Macon Ratcliffe Elementary
101,37.60552,-77.559643,5.10189E+11,4390,Elementary,2022 - 2023,0,0,76,0,3.2,2.008032129,,42,1,56,0,0,394,57,87.4,12.6,0,0,59,43,57,41,116,0,2021-2022,Ridge ElementaryHenrico County Public Schools,Ridge ElementaryHenrico County Public Schools,43,Henrico County,90,Ridge Elementary
102,37.607,-77.6283,5.10189E+11,43650,Elementary,2022 - 2023,0,0,57,6,6.3,1.575892857,,55,9,37,0,0,386,58,86.9,13.1,0,0,52,14,39,51,102,0,2021-2022,Ruby F. Carver ElementaryHenrico County Public Schools,Ruby F. Carver ElementaryHenrico County Public Schools,43,Henrico County,650,Ruby F. Carver Elementary
103,37.5245,-77.3129,5.10189E+11,43220,Elementary,2022 - 2023,0,0,86,0,10,1.20505618,,50,3,47,0,0,148,14,91.4,8.6,0,0,70,9,51,40,67,0,2021-2022,Sandston ElementaryHenrico County Public Schools,Sandston ElementaryHenrico County Public Schools,43,Henrico County,220,Sandston Elementary
104,37.5162,-77.3047,5.10189E+11,43550,Elementary,2022 - 2023,0,0,77,0,8.3,1.476635514,,55,3,42,0,0,301,58,83.8,16.2,0,0,61,3,48,39,161,0,2021-2022,Seven Pines ElementaryHenrico County Public Schools,Seven Pines ElementaryHenrico County Public Schools,43,Henrico County,550,Seven Pines Elementary
105,37.6497,-77.6122,5.10189E+11,4360,Elementary,2022 - 2023,3.1,0,68,0,0,0,,48,30,22,0,0,543,30,94.8,5.2,0,0,20,11,14,80,40,0,2021-2022,Short Pump ElementaryHenrico County Public Schools,Short Pump ElementaryHenrico County Public Schools,43,Henrico County,60,Short Pump Elementary
106,37.6186,-77.537,5.10189E+11,43480,Elementary,2022 - 2023,0,0,58,0,5.7,0,,51,7,42,0,0,428,52,89.2,10.8,0,0,54,30,49,46,132,0,2021-2022,Skipwith ElementaryHenrico County Public Schools,Skipwith ElementaryHenrico County Public Schools,43,Henrico County,480,Skipwith Elementary
107,37.6026,-77.5388,5.10189E+11,4310,Elementary,2022 - 2023,0,4.3,60,0,13,0,,57,17,26,0,0,226,30,88.3,11.7,0,0,40,12,33,59,51,0,2021-2022,Three Chopt ElementaryHenrico County Public Schools,Three Chopt ElementaryHenrico County Public Schools,43,Henrico County,10,Three Chopt Elementary
108,37.6384,-77.4917,5.10189E+11,43490,Elementary,2022 - 2023,2.9,2.9,64,0,5.9,1.666666667,,59,8,33,0,0,451,63,87.7,12.3,0,0,54,19,49,44,161,0,2021-2022,Maude Trevvett ElementaryHenrico County Public Schools,Maude Trevvett ElementaryHenrico County Public Schools,43,Henrico County,490,Maude Trevvett Elementary
109,37.5842,-77.5533,5.10189E+11,43360,Elementary,2022 - 2023,0,0,71,0,0,16.82352941,,64,28,8,0,0,623,23,96.4,3.6,0,0,10,2,6,91,11,0,2021-2022,Tuckahoe ElementaryHenrico County Public Schools,Tuckahoe ElementaryHenrico County Public Schools,43,Henrico County,360,Tuckahoe Elementary
110,37.5718,-77.3642,5.10189E+11,43320,Elementary,2022 - 2023,0,5.4,76,0,2.7,1.097502973,,45,1,54,0,0,358,79,81.9,18.1,0,0,65,8,93,3,413,0,2021-2022,Arthur Ashe Jr. Elementary Henrico County Public Schools,Arthur Ashe Jr. ElementaryHenrico County Public Schools,43,Henrico County,320,Arthur Ashe Jr. Elementary
111,37.6572,-77.5653,5.10189E+11,43230,Elementary,2022 - 2023,2.8,0,61,0,2.8,2.055555556,,52,27,22,0,0,571,50,92.9,8.1,0,0,41,16,23,70,68,0,2021-2022,Springfield Park ElementaryHenrico County Public Schools,Springfield Park ElementaryHenrico County Public Schools,43,Henrico County,230,Springfield Park Elementary
112,37.6558,-77.6391,5.10189E+11,43270,Elementary,2022 - 2023,2.7,0,78,0,2.7,6.795918367,,57,23,19,0,0,550,39,93.4,6.6,0,0,14,6,10,85,29,0,2021-2022,Nuckols Farm ElementaryHenrico County Public Schools,Nuckols Farm ElementaryHenrico County Public Schools,43,Henrico County,270,Nuckols Farm Elementary
113,37.6682,-77.5445,5.10189E+11,43300,Elementary,2022 - 2023,0,0,77,0,0,0,,61,28,11,0,0,478,36,93,7,0,0,30,8,15,75,45,0,2021-2022,Echo Lake ElementaryHenrico County Public Schools,Echo Lake ElementaryHenrico County Public Schools,43,Henrico County,300,Echo Lake Elementary
114,37.635,-77.6322,5.10189E+11,43150,Elementary,2022 - 2023,0,0,68,3,0,3.479166667,,63,25,11,0,0,525,15,97.2,2.8,0,0,15,5,10,85,26,0,2021-2022,Gayton ElementaryHenrico County Public Schools,Gayton ElementaryHenrico County Public Schools,43,Henrico County,150,Gayton Elementary
115,37.4369,-77.3448,5.10189E+11,43450,Elementary,2022 - 2023,0,0,78,0,0,1.082792208,,0,0,0,0,0,24,67,76.2,23.8,0,0,56,3,68,24,204,0,2021-2022,Anthony P. Mehfoud ElementaryHenrico County Public Schools,Anthony P. Mehfoud ElementaryHenrico County Public Schools,43,Henrico County,450,Anthony P. Mehfoud Elementary
116,37.6871,-77.579,5.10189E+11,43240,Elementary,2022 - 2023,2.2,0,54,0,2.2,0,,63,27,10,0,0,692,67,91.2,8.8,0,0,7,6,6,88,24,0,2021-2022,Rivers Edge ElementaryHenrico County Public Schools,Rivers Edge ElementaryHenrico County Public Schools,43,Henrico County,240,Rivers Edge Elementary
117,37.671,-77.4879,5.10189E+11,43260,Elementary,2022 - 2023,2.6,0,61,0,0,1.333333333,,64,17,20,0,0,538,25,95.6,4.4,0,0,48,12,40,53,200,0,2021-2022,Greenwood Elementary Henrico County Public Schools,Greenwood ElementaryHenrico County Public Schools,43,Henrico County,260,Greenwood Elementary
118,37.6724,-77.5991,5.10189E+11,43310,Elementary,2022 - 2023,0,0,51,0,0,0,,59,33,7,0,0,492,57,89.6,10.4,0,0,10,11,11,80,37,0,2021-2022,Twin Hickory ElementaryHenrico County Public Schools,Twin Hickory ElementaryHenrico County Public Schools,43,Henrico County,310,Twin Hickory Elementary
119,37.660466,-77.614046,5.10189E+11,4393,Elementary,2022 - 2023,4.3,0,61,0,4.3,4.273504274,,66,18,16,0,0,554,95,85.4,14.6,0,0,18,17,19,76,78,0,2021-2022,Colonial Trail ElementaryHenrico County Public Schools,Colonial Trail ElementaryHenrico County Public Schools,43,Henrico County,93,Colonial Trail Elementary
120,37.6927,-77.6308,5.10189E+11,4382,Elementary,2022 - 2023,0,0,63,0,3,2.352941176,,71,16,13,0,0,456,29,94,6,0,0,12,4,12,82,42,0,2021-2022,David A. Kaechele Elementary Henrico County Public Schools,David A. Kaechele ElementaryHenrico County Public Schools,43,Henrico County,82,David A. Kaechele Elementary
121,37.516619,-77.44333,5.10324E+11,123170,Elementary,2022 - 2023,0,2.9,61,0,31.4,1.12748538,3,17,2,82,0,0,267,125,68.1,31.98,0,0,85,7,95,2,336,0.892857143,2021-2022,Blackwell ElementaryRichmond City Public Schools,Blackwell ElementaryRichmond City Public Schools,123,Richmond City,170,Blackwell Elementary
122,37.490059,-77.476578,5.10324E+11,1231440,Elementary,2022 - 2023,0,1.7,58,0,13.6,2.378787879,,19,1,81,0,0,750,107,87.5,12.5,0,0,54,79,97,2,115,0,2021-2022,Cardinal ElementaryRichmond City Public Schools,Cardinal ElementaryRichmond City Public Schools,123,Richmond City,1440,Cardinal Elementary
123,37.516227,-77.502759,5.10324E+11,1231400,Elementary,2022 - 2023,0,5.6,71,5,5.6,1.086572438,4,40,4,56,0,0,301,72,80.7,19.3,0,0,75,32,91,6,222,1.801801802,2021-2022,Elizabeth D. Redd ElementaryRichmond City Public Schools,Elizabeth D. Redd ElementaryRichmond City Public Schools,123,Richmond City,1400,Elizabeth D. Redd Elementary
124,37.510994,-77.466436,5.10324E+11,123210,Elementary,2022 - 2023,0,11.1,40,5,27.8,1.020725389,1,26,5,68,0,0,133,22,85.8,14.2,0,0,80,15,93,5,122,0.819672131,2021-2022,Swansboro ElementaryRichmond City Public Schools,Swansboro ElementaryRichmond City Public Schools,123,Richmond City,210,Swansboro Elementary
125,37.489169,-77.508759,5.10324E+11,1231470,Elementary,2022 - 2023,0,2.2,59,0,26.1,1.537190083,2,28,2,70,0,0,505,153,76.7,23.3,0,0,69,51,97,2,231,0.865800866,2021-2022,G.H. Reid ElementaryRichmond City Public Schools,G.H. Reid ElementaryRichmond City Public Schools,123,Richmond City,1470,G.H. Reid Elementary
126,37.476913,-77.489299,5.10324E+11,1231710,Elementary,2022 - 2023,0,2.2,60,2,13.3,1.144329897,3,35,7,58,0,0,406,122,76.9,23.1,0,0,73,43,93,5,208,1.442307692,2021-2022,J.L. Francis ElementaryRichmond City Public Schools,J.L. Francis ElementaryRichmond City Public Schools,123,Richmond City,1710,J.L. Francis Elementary
127,37.548405,-77.482372,5.10324E+11,123600,Elementary,2022 - 2023,0,0,61,4,11.5,1.740963855,,27,23,50,0,0,219,36,85.9,14.1,0,0,54,5,59,33,131,0,2021-2022,John B. Cary ElementaryRichmond City Public Schools,John B. Cary ElementaryRichmond City Public Schools,123,Richmond City,600,John B. Cary Elementary
128,37.564115,-77.499738,5.10324E+11,123580,Elementary,2022 - 2023,0,0,92,0,0,1.964705882,,69,19,13,0,0,421,15,96.6,3.4,0,0,12,3,14,78,37,0,2021-2022,Mary Munford ElementaryRichmond City Public Schools,Mary Munford ElementaryRichmond City Public Schools,123,Richmond City,580,Mary Munford Elementary
129,37.496616,-77.442124,5.10324E+11,123330,Elementary,2022 - 2023,0,9.6,36,4,25,1.318181818,7,23,0,77,0,0,300,241,55.5,44.5,0,0,84,21,97,2,418,1.674641148,2021-2022,Oak Grove/Bellemeade ElementaryRichmond City Public Schools,Oak Grove/Bellemeade ElementaryRichmond City Public Schools,123,Richmond City,330,Oak Grove/Bellemeade Elementary
130,37.54403,-77.534058,5.10324E+11,1231480,Elementary,2022 - 2023,0,2.8,61,0,13.9,1.506493506,8,42,5,53,0,0,293,87,77.1,22.9,0,0,63,7,84,9,308,2.597402597,2021-2022,Southampton ElementaryRichmond City Public Schools,Southampton ElementaryRichmond City Public Schools,123,Richmond City,1480,Southampton Elementary
131,37.521346,-77.492221,5.10324E+11,123660,Elementary,2022 - 2023,0,0,63,0,6.1,1.383136095,5,37,16,47,0,0,265,100,72.6,27.4,0,0,75,4,76,20,250,2,2021-2022,Westover Hills ElementaryRichmond City Public Schools,Westover Hills ElementaryRichmond City Public Schools,123,Richmond City,660,Westover Hills Elementary
132,37.47609,-77.479075,5.10324E+11,1231100,Elementary,2022 - 2023,0,9.8,61,0,2,1.701298701,,27,2,71,0,0,512,101,83.5,16.5,0,0,74,42,96,3,293,0,2021-2022,Broad Rock ElementaryRichmond City Public Schools,Broad Rock ElementaryRichmond City Public Schools,123,Richmond City,1100,Broad Rock Elementary
133,37.546249,-77.582898,5.10324E+11,1231640,Elementary,2022 - 2023,0,3.8,55,0,7.7,1.372212693,,44,3,54,0,0,106,37,84.8,15.2,0,0,49,12,74,20,154,0,2021-2022,J.B. Fisher ElementaryRichmond City Public Schools,J.B. Fisher ElementaryRichmond City Public Schools,123,Richmond City,1640,J.B. Fisher Elementary
134,37.506195,-77.513344,5.10324E+11,1233107,Elementary,2022 - 2023,0,11.9,67,0,23.8,1.546822742,2,41,1,57,0,0,418,110,79.2,20.8,0,0,79,26,94,4,334,0.598802395,2021-2022,Miles Jones ElementaryRichmond City Public Schools,Miles Jones ElementaryRichmond City Public Schools,123,Richmond City,3107,Miles Jones Elementary
135,37.4081,-77.617,5.10084E+11,21631,Middle,2022 - 2023,8.9,9.8,48,1,14.3,1.754901961,1,0,0,0,0,0,1156,304,79.2,20.8,0,0,33,3,34,59,298,0.33557047,2021-2022,Bailey Bridge MiddleChesterfield County Public Schools,Bailey Bridge MiddleChesterfield County Public Schools,21,Chesterfield County,631,Bailey Bridge Middle
136,37.3017,-77.431,5.10084E+11,21420,Middle,2022 - 2023,0,22.9,41,1,16.9,1.337209302,10,0,0,0,0,0,678,322,67.8,32.2,0,0,54,3,65,30,527,1.897533207,2021-2022,Carver MiddleChesterfield County Public Schools,Carver MiddleChesterfield County Public Schools,21,Chesterfield County,420,Carver Middle
137,37.4584,-77.4703,5.10084E+11,21670,Middle,2022 - 2023,8.9,19.8,39,3,18.8,1.405263158,6,0,0,0,0,0,852,565,60.1,39.9,0,0,64,25,92,6,539,1.113172542,2021-2022,Falling Creek MiddleChesterfield County Public Schools,Falling Creek MiddleChesterfield County Public Schools,21,Chesterfield County,670,Falling Creek Middle
138,37.4689,-77.5292,5.10084E+11,21600,Middle,2022 - 2023,2.3,7,47,1,16.3,1.434883721,3,0,0,0,0,0,797,322,71.2,28.8,0,0,48,8,72,23,474,0.632911392,2021-2022,Manchester MiddleChesterfield County Public Schools,Manchester MiddleChesterfield County Public Schools,21,Chesterfield County,600,Manchester Middle
139,37.5022,-77.6491,5.10084E+11,2140,Middle,2022 - 2023,2,1,50,1,6.1,3.2375,1,0,0,0,0,0,1156,202,85.1,14.9,0,0,14,1,14,80,110,0.909090909,2021-2022,Midlothian MiddleChesterfield County Public Schools,Midlothian MiddleChesterfield County Public Schools,21,Chesterfield County,40,Midlothian Middle
140,37.4883,-77.543,5.10084E+11,21690,Middle,2022 - 2023,5.1,3.8,59,2,10.3,1.50137741,5,0,0,0,0,0,665,376,63.9,36.1,0,0,57,14,71,23,388,1.288659794,2021-2022,Providence MiddleChesterfield County Public Schools,Providence MiddleChesterfield County Public Schools,21,Chesterfield County,690,Providence Middle
141,37.5296,-77.6134,5.10084E+11,21760,Middle,2022 - 2023,0,2.4,50,1,4.7,3.019607843,,0,0,0,0,0,973,137,87.7,12.3,0,0,26,5,23,72,115,0,2021-2022,Robious MiddleChesterfield County Public Schools,Robious MiddleChesterfield County Public Schools,21,Chesterfield County,760,Robious Middle
142,37.3846,-77.4866,5.10084E+11,21722,Middle,2022 - 2023,2.7,9.5,49,1,6.8,1.17571885,2,0,0,0,0,0,636,267,70.4,29.6,0,0,56,12,65,29,285,0.701754386,2021-2022,Salem Church MiddleChesterfield County Public Schools,Salem Church MiddleChesterfield County Public Schools,21,Chesterfield County,722,Salem Church Middle
143,37.44,-77.6452,5.10084E+11,21270,Middle,2022 - 2023,1.2,6.2,51,1,11.1,2.283333333,,0,0,0,0,0,954,155,86,14,0,0,27,2,28,64,201,0,2021-2022,Swift Creek MiddleChesterfield County Public Schools,Swift Creek MiddleChesterfield County Public Schools,21,Chesterfield County,270,Swift Creek Middle
144,37.466155,-77.669864,5.10084E+11,21880,Middle,2022 - 2023,1.8,5.4,54,1,0.9,2.8125,3,0,0,0,0,0,1440,234,86,14,0,0,15,1,21,72,215,1.395348837,2021-2022,Tomahawk Creek MiddleChesterfield County Public Schools,Tomahawk Creek MiddleChesterfield County Public Schools,21,Chesterfield County,880,Tomahawk Creek Middle
145,37.336,-77.3425,5.10084E+11,21870,Middle,2022 - 2023,2,2.9,49,1,10.8,1.176678445,3,0,0,0,0,0,1073,248,81.2,18.8,0,0,45,8,54,41,379,0.791556728,2021-2022,Elizabeth Davis MiddleChesterfield County Public Schools,Elizabeth Davis MiddleChesterfield County Public Schools,21,Chesterfield County,870,Elizabeth Davis Middle
146,37.6993,-77.8967,5.10165E+11,37340,Middle,2022 - 2023,6.3,4.7,58,0,7.8,3.058333333,,0,0,0,0,0,529,41,92.8,7.2,0,0,32,2,23,70,69,0,2021-2022,Goochland MiddleGoochland County Public Schools,Goochland MiddleGoochland County Public Schools,37,Goochland County,340,Goochland Middle
147,37.7808,-77.5331,5.10183E+11,42450,Middle,2022 - 2023,3.4,2.3,48,2,17,2.026548673,,0,0,0,0,0,835,77,91.6,8.4,0,0,43,4,25,69,103,0,2021-2022,Liberty MiddleHanover County Public Schools,Liberty MiddleHanover County Public Schools,42,Hanover County,450,Liberty Middle
148,37.6174,-77.341,5.10183E+11,42440,Middle,2022 - 2023,6,4.8,55,2,4.8,2.420560748,2,0,0,0,0,0,839,94,89.9,10.1,0,0,44,2,18,75,100,2,2021-2022,Bell Creek MiddleHanover County Public Schools,Bell Creek MiddleHanover County Public Schools,42,Hanover County,440,Bell Creek Middle
149,37.6662,-77.4117,5.10183E+11,4261,Middle,2022 - 2023,3.2,6,57,1,5.3,2.526315789,,0,0,0,0,0,1066,71,93.8,6.2,0,0,21,1,12,82,86,0,2021-2022,Chickahominy MiddleHanover County Public Schools,Chickahominy MiddleHanover County Public Schools,42,Hanover County,61,Chickahominy Middle
150,37.6667,-77.6102,5.10189E+11,4380,Middle,2022 - 2023,1.3,2.6,61,1,10.5,3.378640777,,0,0,0,0,0,1045,79,93,7,0,0,13,3,16,77,114,0,2021-2022,Short Pump MiddleHenrico County Public Schools,Short Pump MiddleHenrico County Public Schools,43,Henrico County,80,Short Pump Middle
151,37.642,-77.4819,5.10189E+11,43500,Middle,2022 - 2023,2.3,3.5,58,4,14,1.433408578,,0,0,0,0,0,797,268,74.8,25.2,0,0,62,20,74,21,476,0,2021-2022,Brookland MiddleHenrico County Public Schools,Brookland MiddleHenrico County Public Schools,43,Henrico County,500,Brookland Middle
152,37.5455,-77.3597,5.10189E+11,43510,Middle,2022 - 2023,6.2,9.9,49,2,24.7,1.072072072,,0,0,0,0,0,737,244,75.1,24.9,0,0,65,2,94,4,876,0,2021-2022,Fairfield MiddleHenrico County Public Schools,Fairfield MiddleHenrico County Public Schools,43,Henrico County,510,Fairfield Middle
153,37.6255,-77.4813,5.10189E+11,43390,Middle,2022 - 2023,2.6,0,63,4,9.1,3.6,,0,0,0,0,0,941,135,87.5,12.5,0,0,32,3,28,67,193,0,2021-2022,George H. Moody MiddleHenrico County Public Schools,George H. Moody MiddleHenrico County Public Schools,43,Henrico County,390,George H. Moody Middle
154,37.6083,-77.5818,5.10189E+11,43690,Middle,2022 - 2023,2.5,0,66,0,12.7,1.932735426,,0,0,0,0,0,857,184,82.3,17.7,0,0,45,15,45,49,232,0,2021-2022,Quioccasin MiddleHenrico County Public Schools,Quioccasin MiddleHenrico County Public Schools,43,Henrico County,690,Quioccasin Middle
155,37.6084,-77.5609,5.10189E+11,43520,Middle,2022 - 2023,2.8,1.4,62,3,4.2,2.87704918,,0,0,0,0,0,873,145,85.8,14.2,0,0,38,11,31,64,122,0,2021-2022,Tuckahoe MiddleHenrico County Public Schools,Tuckahoe MiddleHenrico County Public Schools,43,Henrico County,520,Tuckahoe Middle
156,37.6205,-77.4217,5.10189E+11,43250,Middle,2022 - 2023,6.8,2.7,64,1,14.9,1.410104012,,0,0,0,0,0,586,150,79.6,20.4,0,0,56,2,71,25,512,0,2021-2022,L. Douglas Wilder MiddleHenrico County Public Schools,L. Douglas Wilder MiddleHenrico County Public Schools,43,Henrico County,250,L. Douglas Wilder Middle
157,37.4768,-77.3729,5.10189E+11,43130,Middle,2022 - 2023,2.5,15.2,48,2,20.3,1.073939394,,0,0,0,0,0,536,227,70.2,29.8,0,0,65,3,90,6,630,0,2021-2022,John Rolfe MiddleHenrico County Public Schools,John Rolfe MiddleHenrico County Public Schools,43,Henrico County,130,John Rolfe Middle
158,37.6457,-77.6078,5.10189E+11,43280,Middle,2022 - 2023,1.7,3.4,48,0,8.6,2.881818182,,0,0,0,0,0,755,72,91.3,8.7,0,0,25,4,19,75,91,0,2021-2022,Pocahontas MiddleHenrico County Public Schools,Pocahontas MiddleHenrico County Public Schools,43,Henrico County,280,Pocahontas Middle
159,37.6584,-77.5379,5.10189E+11,43100,Middle,2022 - 2023,1.5,7.4,63,1,8.8,2.097959184,,0,0,0,0,0,733,91,89,11,0,0,38,4,33,60,203,0,2021-2022,Hungary Creek Middle Henrico County Public Schools,HUNGARY CREEK MIDDLEHenrico County Public Schools,43,Henrico County,100,Hungary Creek Middle
160,37.5036,-77.233,5.10189E+11,4392,Middle,2022 - 2023,0,4.3,49,3,17.4,1.194078947,,0,0,0,0,0,637,103,86.1,13.9,0,0,62,5,75,20,444,0,2021-2022,Elko MiddleHenrico County Public Schools,Elko MiddleHenrico County Public Schools,43,Henrico County,92,Elko Middle
161,37.689779,-77.590222,5.10189E+11,4395,Middle,2022 - 2023,1.8,1.8,60,2,7,1.8125,,0,0,0,0,0,781,74,91.3,8.7,0,0,34,9,24,71,95,0,2021-2022,Holman Middle Henrico County Public Schools,HOLMAN MIDDLEHenrico County Public Schools,43,Henrico County,95,Holman Middle
162,37.551387,-77.93712,5.10303E+11,72130,Middle,2022 - 2023,11.6,3.5,52,4,11.6,1.925,,0,0,0,0,0,837,133,89.3,13.7,0,0,26,1,9,85,39,0,2021-2022,Powhatan MiddlePowhatan County Public Schools,Powhatan MiddlePowhatan County Public Schools,72,Powhatan County,130,Powhatan Middle
163,37.562397,-77.481584,5.10324E+11,12330,Middle,2022 - 2023,0,14.6,62,0,18.8,1.598245614,11,0,0,0,0,0,344,95,78.4,21.6,0,0,63,2,64,32,259,4.247104247,2021-2022,Albert Hill MiddleRichmond City Public Schools,Albert Hill MiddleRichmond City Public Schools,123,Richmond City,30,Albert Hill Middle
164,37.596354,-77.446887,5.10324E+11,123470,Middle,2022 - 2023,0,28.3,46,2,28.3,1.097762073,26,0,0,0,0,0,336,84,80,20,0,0,80,3,89,9,366,7.103825137,2021-2022,Henderson MiddleRichmond City Public Schools,Henderson MiddleRichmond City Public Schools,123,Richmond City,470,Henderson Middle
165,37.521461,-77.513764,5.10324E+11,1233105,Middle,2022 - 2023,0,7.3,50,3,30.9,1.186968839,8,0,0,0,0,0,409,119,77.5,22.5,0,0,71,8,89,8,385,2.077922078,2021-2022,Lucille M. Brown MiddleRichmond City Public Schools,Lucille M. Brown MiddleRichmond City Public Schools,123,Richmond City,3105,Lucille M. Brown Middle
166,37.472983,-77.469725,5.10324E+11,123480,Middle,2022 - 2023,0,9.1,46,3,27.3,1.273255814,23,0,0,0,0,0,491,102,82.8,17.2,0,0,75,27,96,4,315,7.301587302,2021-2022,Thomas C. Boushall MiddleRichmond City Public Schools,Thomas C. Boushall MiddleRichmond City Public Schools,123,Richmond City,480,Thomas C. Boushall Middle
167,37.4815,-77.509631,5.10324E+11,1231631,Middle,2022 - 2023,0,14.6,44,1,25.2,1.374100719,70,0,0,0,0,0,795,355,69.1,30.9,0,0,68,36,96,3,454,15.4185022,2021-2022,River City MiddleRichmond City Public Schools,River City MiddleRichmond City Public Schools,123,Richmond City,1631,River City Middle
168,37.351,-77.0763,5.10072E+11,19100,High,2022 - 2023,0,11.5,43,14,19.2,0.914185639,1,0,0,0,100,0.404858,124,122,50.4,49.6,7.1,21.4,61,<10*,55,30,129,0.775193798,2021-2022,Charles City County HighCharles City County Public Schools,Charles City County HighCharles City County Public Schools,19,Charles City County,100,Charles City County High
169,37.3482,-77.4725,5.10084E+11,2130,Other,2022 - 2023,4.4,2.2,46,4,11.1,1.636986301,8,0,0,0,100,0.401606,82,142,36.6,63.4,42.2,4.4,62,<10*,63,30,109,7.339449541,2021-2022,Carver College and Career AcademyChesterfield County Public Schools,Carver College and Career AcademyChesterfield County Public Schools,21,Chesterfield County,30,Carver College and Career Academy
170,37.52211,-77.802527,5.10303E+11,7211,High,2022 - 2023,9.8,4.5,44,3,8.9,1.606060606,2,0,0,0,1.818182,23.3711,1057,305,77.6,22.4,2.5,48.2,25,<10*,11,85,93,2.150537634,2021-2022,Powhatan HighPowhatan County Public Schools,Powhatan HighPowhatan County Public Schools,72,Powhatan County,11,Powhatan High
171,37.537675,-77.450857,5.10324E+11,12390,High,2022 - 2023,0,6.7,94,0,6.7,0,,0,0,0,32.62411,76.63043,171,10,94.5,5.5,0,93.5,37,<10*,55,41,68,0,2021-2022,Open HighRichmond City Public Schools,Open HighRichmond City Public Schools,123,Richmond City,90,Open High
172,37.57099,-77.429854,5.10324E+11,123452,High,2022 - 2023,0,0,48,9,13.6,1.448695652,,0,0,0,53.33333,52.5,187,11,94.4,5.6,0,100,37,<10*,67,27,115,0,2021-2022,Richmond Community HighRichmond City Public Schools,Richmond Community HighRichmond City Public Schools,123,Richmond City,452,Richmond Community High
173,37.549324,-77.441221,5.10324E+11,1233110,Other,2022 - 2023,0,0,50,0,0,1.060335196,25,0,0,0,0,0,15,178,7.8,92.2,58.1,1.6,90,<10*,93,5,145,17.24137931,2021-2022,Richmond AlternativeRichmond City Public Schools,Richmond AlternativeRichmond City Public Schools,123,Richmond City,3110,Richmond Alternative
174,37.3475,-77.0763,5.10072E+11,1980,Elementary,2022 - 2023,8.3,0,50,12,12.5,1.074358974,1,49,3,49,0,0,199,66,75.1,24.9,0,0,64,<10*,44,37,132,0.757575758,2021-2022,Charles City County ElementaryCharles City County Public Schools,Charles City County ElementaryCharles City County Public Schools,19,Charles City County,80,Charles City County Elementary
175,37.5493,-77.6525,5.10084E+11,21510,Elementary,2022 - 2023,2.3,0,59,0,9.1,0,,63,27,10,0,0,576,27,95.5,4.5,0,0,4,<10*,5,91,9,0,2021-2022,Bettie Weaver ElementaryChesterfield County Public Schools,Bettie Weaver ElementaryChesterfield County Public Schools,21,Chesterfield County,510,Bettie Weaver Elementary
176,37.757,-78.0577,5.10165E+11,37120,Elementary,2022 - 2023,8.1,0,61,0,2.7,5.434782609,,61,7,32,0,0,248,39,86.4,13.6,0,0,48,<10*,23,70,59,0,2021-2022,Byrd ElementaryGoochland County Public Schools,Byrd ElementaryGoochland County Public Schools,37,Goochland County,120,Byrd Elementary
177,37.696033,-77.890089,5.10165E+11,37360,Elementary,2022 - 2023,4.4,0,52,0,2.2,1.886792453,,57,13,30,0,0,304,36,89.4,10.6,0,0,29,<10*,16,78,41,0,2021-2022,Goochland ElementaryGoochland County Public Schools,Goochland ElementaryGoochland County Public Schools,37,Goochland County,360,Goochland Elementary
178,37.6262,-77.2964,5.10183E+11,42360,Elementary,2022 - 2023,0,0,69,0,0,0,,63,9,28,0,0,346,24,93.5,6.5,0,0,19,<10*,8,85,10,0,2021-2022,Battlefield Park ElementaryHanover County Public Schools,Battlefield Park ElementaryHanover County Public Schools,42,Hanover County,360,Battlefield Park Elementary
179,37.9333,-77.6418,5.10183E+11,4220,Elementary,2022 - 2023,0,0,72,4,0,0,,48,13,39,0,0,254,37,87.3,12.7,0,0,34,<10*,6,88,5,0,2021-2022,Beaverdam ElementaryHanover County Public Schools,Beaverdam ElementaryHanover County Public Schools,42,Hanover County,20,Beaverdam Elementary
180,37.677859,-77.389277,5.10183E+11,42410,Elementary,2022 - 2023,8.5,2.1,56,0,8.5,0,,62,19,18,0,0,547,26,95.5,4.5,0,0,13,<10*,12,83,48,0,2021-2022,Pearson's Corner ElementaryHanover County Public Schools,Pearson's Corner ElementaryHanover County Public Schools,42,Hanover County,410,Pearson's Corner Elementary
181,37.6909,-77.3894,5.10183E+11,42200,Elementary,2022 - 2023,0,0,74,0,1.8,9.259259259,,65,13,22,0,0,668,30,95.6,4.4,0,0,15,<10*,12,81,57,0,2021-2022,Kersey Creek ElementaryHanover County Public Schools,Kersey Creek ElementaryHanover County Public Schools,42,Hanover County,200,Kersey Creek Elementary
182,37.4825,-77.3675,5.10189E+11,43470,Elementary,2022 - 2023,3.2,0,48,3,16.1,1.039106145,,42,4,54,0,0,309,78,79.8,20.2,0,0,66,<10*,94,3,367,0,2021-2022,George F. Baker ElementaryHenrico County Public Schools,George F. Baker ElementaryHenrico County Public Schools,43,Henrico County,470,George F. Baker Elementary
183,37.533934,-77.320396,5.10189E+11,43200,Elementary,2022 - 2023,5.9,11.8,56,3,14.7,1.12160414,,28,2,70,0,0,255,116,68.7,31.3,0,0,80,<10*,82,14,293,0,2021-2022,Fair Oaks ElementaryHenrico County Public Schools,Fair Oaks ElementaryHenrico County Public Schools,43,Henrico County,200,Fair Oaks Elementary
184,37.5429,-77.3406,5.10189E+11,43640,Elementary,2022 - 2023,0,29.7,58,0,5.4,0.993296089,,22,4,74,0,0,335,151,68.9,31.1,0,0,83,<10*,94,3,476,0,2021-2022,Highland Springs ElementaryHenrico County Public Schools,Highland Springs ElementaryHenrico County Public Schools,43,Henrico County,640,Highland Springs Elementary
185,37.4446,-77.3545,5.10189E+11,43290,Elementary,2022 - 2023,0,4.5,60,4,9.1,1.251101322,,43,6,51,0,0,232,38,85.9,14.1,0,0,49,<10*,76,16,179,0,2021-2022,Varina ElementaryHenrico County Public Schools,Varina ElementaryHenrico County Public Schools,43,Henrico County,290,Varina Elementary
186,37.4675,-77.3247,5.10189E+11,43330,Elementary,2022 - 2023,5.6,5.6,66,3,8.3,0.900133156,,38,11,51,0,0,358,79,81.9,18.1,0,0,63,<10*,80,15,353,0,2021-2022,Henry D. Ward ElementaryHenrico County Public Schools,Henry D. Ward ElementaryHenrico County Public Schools,43,Henrico County,330,Henry D. Ward Elementary
187,37.5711,-77.3795,5.10189E+11,4394,Elementary,2022 - 2023,4.9,2.4,50,0,9.8,1.092896175,,55,8,37,0,0,387,81,82.7,17.3,0,0,68,<10*,93,2,453,0,2021-2022,Harvie ElementaryHenrico County Public Schools,Harvie ElementaryHenrico County Public Schools,43,Henrico County,94,Harvie Elementary
188,37.5289,-77.099,5.10261E+11,63180,Elementary,2022 - 2023,0,2.9,55,0,5.9,1.643678161,,61,12,27,0,0,407,35,92.1,7.9,0,0,21,<10*,14,78,38,0,2021-2022,George W. Watkins ElementaryNew Kent County Public Schools,George W. Watkins ElementaryNew Kent County Public Schools,63,New Kent County,180,George W. Watkins Elementary
189,37.514624,-76.983608,5.10261E+11,6310,Elementary,2022 - 2023,2.3,4.7,39,4,7,2.403846154,,58,11,31,0,0,530,74,87.7,12.3,0,0,27,<10*,17,74,64,0,2021-2022,New Kent Elementary New Kent County Public Schools,New Kent ElementaryNew Kent County Public Schools,63,New Kent County,10,New Kent Elementary
190,37.5602,-77.9488,5.10303E+11,72231,Elementary,2022 - 2023,6.3,1.6,52,0,3.1,1.166666667,,56,9,35,0,0,647,74,89.7,10.3,0,0,33,<10*,11,83,41,0,2021-2022,Pocahontas ElementaryPowhatan County Public Schools,Pocahontas ElementaryPowhatan County Public Schools,72,Powhatan County,231,Pocahontas Elementary
191,37.5516,-77.9343,5.10303E+11,7213,Elementary,2022 - 2023,18.6,0,58,0,9.3,0,,69,16,15,0,0,367,29,92.7,7.3,0,0,26,<10*,7,87,14,0,2021-2022,Powhatan ElementaryPowhatan County Public Schools,Powhatan ElementaryPowhatan County Public Schools,72,Powhatan County,13,Powhatan Elementary
192,37.519351,-77.798135,5.10303E+11,7221,Elementary,2022 - 2023,6.8,0,54,0,3.4,18.51851852,,65,11,24,0,0,593,43,93.2,6.8,0,0,28,<10*,8,84,18,0,2021-2022,Flat Rock ElementaryPowhatan County Public Schools,Flat Rock ElementaryPowhatan County Public Schools,72,Powhatan County,21,Flat Rock Elementary
193,37.573713,-77.435694,5.10324E+11,123390,Elementary,2022 - 2023,0,3.3,66,0,3.3,1.223990208,1,46,6,48,0,0,250,54,82.2,17.8,0,0,72,<10*,86,11,241,0.414937759,2021-2022,Barack Obama ElementaryRichmond City Public Schools,Barack Obama ElementaryRichmond City Public Schools,123,Richmond City,390,Barack Obama Elementary
194,37.538761,-77.470351,5.10324E+11,123750,Other,2022 - 2023,0,0,55,9,40,1.043841336,,0,0,0,0,0,11,21,34.4,65.6,0,0,92,<10*,100,0,23,0,2021-2022,Amelia Street Special EducationRichmond City Public Schools,Amelia Street Special EducationRichmond City Public Schools,123,Richmond City,750,Amelia Street Special Education
195,37.530395,-77.413299,5.10324E+11,123830,Elementary,2022 - 2023,0,6.3,53,0,12.5,1.27064803,1,45,11,45,0,0,291,84,77.6,22.4,0,0,81,<10*,84,11,303,0.330033003,2021-2022,Chimborazo ElementaryRichmond City Public Schools,Chimborazo ElementaryRichmond City Public Schools,123,Richmond City,830,Chimborazo Elementary
196,37.549808,-77.40146,5.10324E+11,123710,Elementary,2022 - 2023,0,16,48,4,20,0.987991266,,14,0,86,0,0,163,91,64.2,35.8,0,0,96,<10*,97,0,230,0,2021-2022,Fairfield Court ElementaryRichmond City Public Schools,Fairfield Court ElementaryRichmond City Public Schools,123,Richmond City,710,Fairfield Court Elementary
197,37.534676,-77.411142,5.10324E+11,123290,Elementary,2022 - 2023,0,5.4,50,3,21.6,1.019459459,9,32,3,66,0,0,336,166,66.9,33.1,0,0,92,<10*,95,2,457,1.969365427,2021-2022,Henry Marsh III ElementaryRichmond City Public Schools,Henry Marsh III ElementaryRichmond City Public Schools,123,Richmond City,290,Henry Marsh III Elementary
198,37.587556,-77.447185,5.10324E+11,123230,Elementary,2022 - 2023,0,0,57,0,17.9,1.048532731,1,33,4,63,0,0,228,66,77.6,22.4,0,0,89,<10*,92,4,257,0.389105058,2021-2022,Ginter Park ElementaryRichmond City Public Schools,Ginter Park ElementaryRichmond City Public Schools,123,Richmond City,230,Ginter Park Elementary
199,37.565102,-77.424665,5.10324E+11,123130,Elementary,2022 - 2023,0,3.7,69,0,18.5,1.112773303,3,41,7,51,0,0,219,27,89,11,0,0,85,<10*,91,4,233,1.287553648,2021-2022,Overby-Sheppard ElementaryRichmond City Public Schools,Overby-Sheppard ElementaryRichmond City Public Schools,123,Richmond City,130,Overby-Sheppard Elementary
200,37.554419,-77.468107,5.10324E+11,123200,Elementary,2022 - 2023,0,3.4,71,0,6.9,2.263586957,,56,11,33,0,0,278,50,84.8,15.2,0,0,44,<10*,43,50,120,0,2021-2022,William Fox ElementaryRichmond City Public Schools,William Fox ElementaryRichmond City Public Schools,123,Richmond City,200,William Fox Elementary
201,37.545925,-77.401556,5.10324E+11,123650,Elementary,2022 - 2023,0,7.4,38,0,25.9,0.998931624,1,28,3,69,0,0,151,100,57.9,42.1,0,0,95,<10*,95,2,250,0.4,2021-2022,Woodville ElementaryRichmond City Public Schools,Woodville ElementaryRichmond City Public Schools,123,Richmond City,650,Woodville Elementary
202,37.531472,-77.421281,5.10324E+11,123100,Elementary,2022 - 2023,0,0,67,0,13.6,1.175032175,,45,14,41,0,0,154,33,82.4,17.6,0,0,69,<10*,85,9,146,0,2021-2022,Bellevue ElementaryRichmond City Public Schools,Bellevue ElementaryRichmond City Public Schools,123,Richmond City,100,Bellevue Elementary
203,37.554534,-77.448647,5.10324E+11,123311,Elementary,2022 - 2023,0,25,34,8,25,1.063474388,4,15,0,85,0,0,250,183,57.7,42.3,0,0,89,<10*,92,4,377,1.061007958,2021-2022,George W. Carver ElementaryRichmond City Public Schools,George W. Carver ElementaryRichmond City Public Schools,123,Richmond City,311,George W. Carver Elementary
204,37.585156,-77.461051,5.10324E+11,1233106,Elementary,2022 - 2023,0,8.1,58,0,8.1,2.624671916,,46,24,30,0,0,382,45,89.5,10.5,0,0,33,<10*,41,54,163,0,2021-2022,Linwood Holton ElementaryRichmond City Public Schools,Linwood Holton ElementaryRichmond City Public Schools,123,Richmond City,3106,Linwood Holton Elementary
205,37.516263,-77.469814,5.10324E+11,1233119,Other,2022 - 2023,0,13.6,67,0,13.6,1.168067227,,43,19,38,0,0,272,32,89.5,10.5,0,0,44,<10*,53,39,147,0,2021-2022,Patrick Henry School Of Science And ArtsRichmond City Public Schools,Patrick Henry School Of Science And ArtsRichmond City Public Schools,123,Richmond City,3119,Patrick Henry School Of Science And Arts
206,37.24543,-77.47564,5.10084E+11,21110,Middle,2022 - 2023,1.5,13.2,46,1,14.7,1.536458333,10,0,0,0,0,0,605,255,70.3,29.7,0,0,46,<10*,44,49,332,3.012048193,2021-2022,Matoaca MiddleChesterfield County Public Schools,Matoaca MiddleChesterfield County Public Schools,21,Chesterfield County,110,Matoaca Middle
207,37.6859,-77.3839,5.10183E+11,42553,Middle,2022 - 2023,3.5,4.7,58,0,5.9,0,,0,0,0,0,0,865,66,92.9,7.1,0,0,20,<10*,10,83,62,0,2021-2022,Oak Knoll MiddleHanover County Public Schools,Oak Knoll MiddleHanover County Public Schools,42,Hanover County,553,Oak Knoll Middle
208,37.512341,-76.983496,5.10261E+11,63100,Middle,2022 - 2023,3.8,13.2,41,0,5.7,2.098360656,,0,0,0,0,0,636,139,82.1,17.9,0,0,25,<10*,18,75,94,0,2021-2022,New Kent Middle New Kent County Public Schools,NEW KENT MIDDLENew Kent County Public Schools,63,New Kent County,100,New Kent Middle
209,37.548923,-77.462389,5.10324E+11,12350,Middle,2022 - 2023,0,0,63,5,2.5,1.405864198,8,0,0,0,0,0,382,62,86,14,0,0,66,<10*,70,26,293,2.730375427,2021-2022,Binford MiddleRichmond City Public Schools,Binford MiddleRichmond City Public Schools,123,Richmond City,50,Binford Middle
210,37.542237,-77.419916,5.10324E+11,123770,Middle,2022 - 2023,0,23.9,42,2,32.6,1.011037528,43,0,0,0,0,0,353,132,72.8,27.2,0,0,94,<10*,93,3,454,9.471365639,2021-2022,Martin Luther King Jr. Middle Richmond City Public Schools,MARTIN LUTHER KING JR. MIDDLERichmond city Public Schools,123,Richmond City,770,Martin Luther King Jr. Middle
211,37.594196,-77.446562,5.10324E+11,1233200,Other,2022 - 2023,0,0,67,0,0,0.88028169,,0,0,0,0,0,20,10,66.7,33.3,0,0,52,<10*,89,4,23,0,2021-2022,Richmond Career Education and Employment Charter SchoolRichmond City Public Schools,Richmond Career Education and Employment Charter SchoolRichmond City Public Schools,123,Richmond City,3200,Richmond Career Education and Employment Charter School
212,37.475501,-77.447046,5.10324E+11,123511,Other, ,0,0,0,0,0,1.141654979,1,0,0,0,0,0,0,0,0,0,0,0,66,<10*,94,4,120,0.833333333,2021-2022,Summer Hill Preschool CenterRichmond City Public Schools,Summer Hill Preschool CenterRichmond City Public Schools,123,Richmond City,511,Summer Hill Preschool Center
213,37.306167,-77.42565,5.10084E+11,2133,Other, ,0,0,0,0,0,0,,0,0,0,0,0,0,0,0,0,0,0,85,<10*,75,19,158,0,2021-2022,Chester Early Childhood Learning AcademyChesterfield County Public Schools,Chester Early Childhood Learning AcademyChesterfield County Public Schools,21,Chesterfield County,33,Chester Early Childhood Learning Academy
214,37.538357,-77.468138,5.10324E+11,123690,Other, ,0,0,0,0,0,0,,0,0,0,0,0,0,0,0,0,0,0,64,<10*,81,18,141,0,2021-2022,Maymont Pre-K CenterRichmond City Public Schools,Maymont Pre-K CenterRichmond City Public Schools,123,Richmond City,690,Maymont Pre-K Center
215,37.541815,-77.420893,5.10324E+11,123771,Other, ,0,0,0,0,0,0,,0,0,0,0,0,0,0,0,0,0,0,70,<10*,97,1,187,0,2021-2022,Martin Luther King Jr. Early Learning CenterRichmond City Public Schools,Martin Luther King Jr. Early Learning CenterRichmond City Public Schools,123,Richmond City,771,Martin Luther King Jr. Early Learning Center
